,venue,lat,lon,address,category
0,Srđ Mountain,42.64924529165226,18.111598087472444,Srđ,Mountain
1,Villa Klaic,42.647729823474855,18.103821388684974,,Hotel
2,Park Grada Bad Homburga,42.646697,18.094418,,Park
3,Walking trail srd,42.646845,18.10535,,Trail
4,Fort Imperial,42.649224699147766,18.11160542782729,,History Museum
5,MIB Pivac,42.6444,18.1047,Zagrebačka 64,
6,"Villa ""MIA""",42.65195646949681,18.096952736377716,Od Gaja 22,Vacation Rental
7,Rooms Drage,42.6445030902152,18.10248613357544,Baltazara Bogisica 23,Hotel
8,Elapite islands Cruise,42.644259911358276,18.104990916761242,,Boat or Ferry
9,Таможенный Контроль Montenegro-Croatia,42.64399898144635,18.101748671521616,,Boat or Ferry
10,Paola Di Rosa,42.646599428280126,18.100677580083957,Volantina 1,Sorority House
11,Rooms Dora,42.647405,18.104274,Šumetska ulica 4,Hostel
12,Prometna policija Dubrovnik,42.64634116302019,18.101592349838313,Vladimira Nazora 32,Police Station
13,ORYX Rent A Car,42.64545959090279,18.1033524207421,Zagrebačka ulica 56,Rental Car Location
14,Zrinkine odaje,42.64536174517803,18.109634334007026,,Other Nightlife
15,Jadroagent International Shipping and Freight,42.6458289021732,18.102378845214844,,General Travel
16,Dubrovnik in Homeland War,42.64930737966026,18.111599990986544,,Art Gallery
17,Apartments Rock Palace,42.64683803433917,18.104550895780534,Stolacka 1,Assisted Living
18,Sona & Saša Party Location,42.645194537164905,18.107133133062913,Gornji Kono 22,Nightclub
19,Umjetnicka skola Luke Sorkocevica,42.644294,18.107165,Ulica Josipa Jurja Strossmayera 3,Dance Studio
20,Dubrovnik Cable Car - Top (Bosanka) Station,42.64923608308871,18.111640219354854,E65,Cable Car
21,Medicinska Skola,42.645159,18.103798,Baltazara Bogsica 10,High School
22,Family Stanos,42.64388656616211,18.108112335205078,,Hostel
23,Marko Polo Hostel,42.647234,18.104417,,Hostel
24,Apartments Deranja,42.64609223327004,18.103531902216883,Ulica Pera Bakica 4,Hotel
25,AB Apartement,42.647791,18.097184,,Vacation Rental
26,Villa Brunello,42.643885,18.104806,,Boarding House
27,Magnificent View Hostel,42.650847,18.098217,Budvanska 4b,Hostel
28,Bric-a-brac,42.644314,18.105692,Zagrebacka 13,Public Art
29,Sobe Room Appatmens,42.645821961136214,18.103827178417088,,Travel & Transport
30,Sobe Mara,42.64729300078518,18.10440036243013,,Hostel
31,Guesthouse Martin,42.65067,18.098757,Tivatska 1,Vacation Rental
32,Libertas Bus Line 3,42.645183,18.107078,Nuncijata,Bus Line
33,Old Dinka,42.64419225471893,18.106415199469097,,Housing Development
34,Only Apartments,42.64369,18.107775,Strma 9,Residential Building (Apartment / Condo)
35,Royal Princess,42.644323246121516,18.10717366162165,,Residential Building (Apartment / Condo)
36,PassionFlower,42.643936,18.108903,,Residential Building (Apartment / Condo)
37,Apartman A Kind Of Magic Dubrovnik,42.651615,18.098332,,Residential Building (Apartment / Condo)
38,Appartments Marevista,42.64428,18.108128,,Residential Building (Apartment / Condo)
39,studio im,42.646843,18.100542,Vladimira Nazora 16,Residential Building (Apartment / Condo)
40,Panorama Guesthouse,42.65206081958255,18.098182240852076,Majkovska 1 Gruz,Boarding House
41,Hostel Center Dubrovnik,42.650836,18.098242,4 Budvanska,Hostel
42,Apartment Dubrovnik Travel,42.65082518336283,18.098286454154014,Ulica Budanksa,Hostel
43,Villa Nicol,42.646461486816406,18.10409164428711,,Residential Building (Apartment / Condo)
44,Apartment & Room Andrea,42.64801,18.101688,,Residential Building (Apartment / Condo)
45,Apartment Laos,42.6489498891457,18.096700099903014,,Residential Building (Apartment / Condo)
46,Villa Kosovic,42.64486345757658,18.110618608408235,,Residential Building (Apartment / Condo)
47,Vicina 5,42.64373779296875,18.107385635375977,Vicina 5,Bed & Breakfast
48,Villa Elly Apartments,42.645715,18.098822,Ivana Matijasevica 2A,Bed & Breakfast
49,Sobe Nar,42.644226,18.106896,,Bed & Breakfast
50,Villa Doda,42.64358985554334,18.105291984106902,Antuna Masle 1,Bed & Breakfast
51,Apartment Why Green,42.649244,18.101392,9 Brdasta,Bed & Breakfast
52,Self-service Laundry room,42.645638,18.102977,,Laundry Service
53,Parking,42.64453331246328,18.10537304074978,,Parking
54,pekara Galeta,42.64449755,18.10513937,,Bakery
55,garaža dubrovnik 1,42.6450812223306,18.10323268931305,,Parking
56,Apartments Rock Palace,42.646358489990234,18.104354858398438,Stolacka 1,Assisted Living
57,Apartments Princ Hrvoje,42.64908436856967,18.096329565772418,Natka Nodila 8,Bed & Breakfast
58,Konzum,42.64610567754902,18.102142370924465,Zagrebačka 1,Grocery Store
59,Guesthouse Libertas,42.64486051105976,18.103722963255567,Pera Budmani 19,Bed & Breakfast
60,Rooms Matea,42.648128,18.099798,3 Od Gaja,Hostel
61,villa ankora,42.64578622956633,18.104927229475482,,Residential Building (Apartment / Condo)
62,Italiana Food Bar Dubrovnik,42.645737,18.103181,,Pizza Place
63,Cafe Bar DIX,42.648331981097755,18.09904489646132,Andrije Hebranga,Bar
64,Pinky,42.64461612669568,18.10511561918536,,Bar
65,Caffe Bar Seven Sins,42.64845411856598,18.0987264662592,Andrije Hebranga 16,Karaoke Bar
66,Apartments ZoomZoom,42.647208,18.100723,Andrije Hebranga 2a,Hotel
67,Apartment Saint John,42.644209,18.10574,Srednji Kono 18,Hotel
68,4B Apartments,42.647852,18.09695,Diva Natali 3,Boarding House
69,Apartment Art,42.644367,18.105671,Zagrebačka 13,Hotel
70,Villa Anica,42.64429790250642,18.10274362564087,Baltazara Bogisica,Hotel
71,Souvenir Shop,42.649175,18.111678,,Souvenir Shop
72,Apartments & Rooms Stella,42.646621,18.105273,,Boarding House
73,Apartmani Imperial,42.64369696268087,18.106727847765935,Srednji Kono 14,Hotel
74,Villa Dard Dubrovnik,42.645605,18.10709,,Resort
75,Turtle Apartments,42.6436458,18.1089467,"Za kapelicom, 2",Hotel
76,Villa Banana,42.65104596745354,18.098124344588346,,Hostel
77,Hedera Estate,42.64639151883576,18.100046506318062,Rudimira Rotera 12A,Hotel
78,Keka-voće i povrće,42.649104,18.098445,,Fruit & Vegetable Store
79,Villa Iveta,42.643628,18.105564,,Hotel
80,Ladies Who Kiki - Dubrovnik Branch,42.646656,18.10007,,Vacation Rental
81,Appartement Aurelia,42.643802619851456,18.108806387950082,Zu Kapelicom 6,Residential Building (Apartment / Condo)
82,Noa Apartments,42.645259,18.105007,,Residential Building (Apartment / Condo)
83,Studenac Market,42.646206,18.102083,,Grocery Store
84,Apartment Jelena,42.651917,18.0979,,Bed & Breakfast
85,Dubrovnik Icy Guest House,42.65085220336914,18.09803009033203,,Bed & Breakfast
86,Spot To Fly Drone,42.644622,18.108204,,Park
87,Gornja postaja žičare - Srdj,42.64908361554872,18.11165499481692,,Other Great Outdoors
88,ulica Pera Budmanija,42.645062,18.103862,,Pedestrian Plaza
89,Villa Dard,42.646514243386754,18.102952934120122,,Bed & Breakfast
90,B&B Villa Dubronik Garden,42.645744,18.104764,,Bed & Breakfast
91,Apartment Pasko,42.647296,18.102006,Privezna 4,Bed & Breakfast
92,Pemo,42.647977,18.099258,,Grocery Store
93,Panorama,42.648997272631966,18.11186737936316,Brsalje 1,Café
94,United Colors of Benetton,42.6444955803624,18.105604631274442,Iza Luze 2,Clothing Store
95,Perak auto - MAZDA,42.64715468587566,18.10044765472412,Andrije Hebranga 2a,Auto Dealership
96,yetien,42.646205,18.103456,,Moving Target
97,Brischki's chambers,42.649702165304646,18.09679852310588,Gabra Roncevica 26,Residential Building (Apartment / Condo)
98,#BAMSweekend Funhouse,42.644159827512226,18.106727847765935,Zagrebačka 28,Comedy Club
99,Villa Benic,42.645477294921875,18.103910446166992,Zagrebacka 54,Residential Building (Apartment / Condo)
100,Brdasta Ulica 12,42.648736,18.102035,Brdasta Ulica 12,Residential Building (Apartment / Condo)
101,apartman Viola,42.64401626586914,18.105998992919922,Srednji Kono 18B,Residential Building (Apartment / Condo)
102,Krispy Kreme,42.643057590962826,18.10448720858493,,Dessert Shop
103,Guesthouse Fabris,42.64890670776367,18.09698486328125,,Bed & Breakfast
104,Nota & Bene,42.646263893057906,18.106143079911018,,Mediterranean Restaurant
105,crodux,42.64303970336914,18.104690551757812,,Gas Station
106,Manda Rooms,42.64389,18.101818,,Vacation Rental
107,Apartments Koncul,42.64573,18.099442,,Hotel
108,Villa Adria,42.64861297607422,18.096765518188477,"Vladimira Nazora 11B, Gruz",Boarding House
109,Apartments Carmen & Tosca,42.645492,18.099004,,Boarding House
110,(NEM) Janja Katić,42.64343086089734,18.108076870872157,Za Kapelicom 12,Hotel
111,Apartments & rooms Maria Bilicic,42.646751,18.101895,Privežna ul. 2,Hotel
112,Limestone House Dubrovnik,42.64502521612084,18.104342465007083,,Hotel
113,Trippentrekkers @Dubrovnik,42.646925,18.104478,,Residential Building (Apartment / Condo)
114,Apartmant Nia,42.64724788212624,18.102744500388134,Anica Dedo,Residential Building (Apartment / Condo)
115,Maria Di Apartments,42.64767,18.10037,Ulica Pera Beatovića 7,Residential Building (Apartment / Condo)
116,Foretic Guesthouse,42.64833,18.099902,Ulica od Gaja 3,Bed & Breakfast
117,Depozit,42.6447052616272,18.10608518216342,,Well
118,Rooms Batina,42.650642,18.099088,Marka Gjaje 1,Bed & Breakfast
119,Hotel Adria,42.65798973376725,18.091748125373204,"Radnicka, 46",Resort
120,Hotel Adria Pool,42.657817,18.091885,,Hotel Pool
121,Cafè Bar Song,42.658106505538875,18.091790558619383,"St jepana cvijica, 22",Cocktail Bar
122,danica guesthouse,42.65964889526367,18.091304779052734,"Radnicka 33,",Bed & Breakfast
123,Tiskara Alfa-2,42.656932,18.089078,Metohijska 5,Paper / Office Supplies Store
124,Tommy Market,42.658367,18.090262,Ulica Stjepana Cvijića 34,Grocery Store
125,Libertas,42.657812,18.091802,,Historic Site
126,MIB Pivac,42.65972,18.08944,Obala S.Radića 19,
127,Amfora - Mediterranean Grill & Pasta,42.65744503455895,18.088021997346978,Obala Stjepana Radica 26,Coffee Shop
128,Svratiste,42.65926657117184,18.08913318606732,,Animal Shelter
129,Rooms & Apartments Abba,42.659875,18.089978,"Đura Basaričeka 7, 20000 Dubrovnik",Hotel
130,zio Aparment,42.65980095445277,18.09122318740118,,Residential Building (Apartment / Condo)
131,Budva,42.655055,18.091652,,
132,Frizerski salon Miluka,42.65703768744,18.092056876080285,Ulica Silvija Strahimira Kranjcevica 30,Miscellaneous Shop
133,Beach Bar Hawaii,42.659581838640804,18.091460556865986,,Pizza Place
134,Private Hospital Marin Med Dubrovnik,42.65718965136192,18.08850213580713,Dr. Ante Starcevica 45,Medical Center
135,Let's Ride,42.65983402689878,18.091101607989682,,Travel Agency
136,Studenac,42.655502,18.091782,Stjepana Cvijica 3,Convenience Store
137,Dilberovic,42.660105426077216,18.091228976898154,,Resort
138,Red Dwarf Guesthouse,42.657328,18.091762,,Hostel
139,Apartment Anet,42.658639,18.090904,,Vacation Rental
140,Cafe Bar None,42.65767048367834,18.089445816948164,,Bar
141,Caff bar Song,42.657697,18.088092,,Café
142,perak pero,42.660343170166016,18.088909149169922,"mljestka, 11",Boarding House
143,Rooms Adrijana,42.65579605102539,18.091705322265625,"Augusta Cesarca 4,",Hostel
144,Plodovi Zemlje,42.658456,18.08874,,General Entertainment
145,Gulliver Travel d.o.o.,42.65722184020519,18.088288754747996,Obala Stjepana Radića 25,General Travel
146,Akvarij / Aquarium,42.639913610691416,18.112276196479797,Ul. kneza Damjana Jude 2,Aquarium
147,red dwarf guesthouse,42.657282,18.091754,,Hostel
148,Apartment Denis,42.657939,18.090651,,Residential Building (Apartment / Condo)
149,Autobusno Stajalista Gruz,42.65731217363925,18.08806213822216,,Bus Station
150,Kraš,42.65641156437844,18.091888980263036,,Dessert Shop
151,Kod Kuma,42.65686798095703,18.09053611755371,,Karaoke Bar
152,Caffe bar Rhea Silvia,42.65724656572874,18.088267487908556,Obala Stjepana Radica 26A,Café
153,Dubrovnik,42.65848062176034,18.0884558202424,Hirvatistan Dubrovnik,Bar
154,Guesthouse Maria,42.656342,18.090025,Andrije hebranga 90,Hostel
155,Apartment Purple Petra,42.658773,18.090384,,Hotel
156,Guest House Ivona,42.65874,18.089314,,Hotel
157,Apartments Gera,42.65534719343102,18.093139516811544,Janjevska 4,Boarding House
158,Apartments Dubrovnik Palm Tree Paradise,42.658735,18.090178,,Vacation Rental
159,Guesthouse Brunsko / Nina,42.65589904785156,18.093366622924805,Janjevska 13,Hostel
160,Servis BUBA,42.65680706270542,18.089978448065118,,Automotive Shop
161,Berkeley Hotel Dubrovnik,42.65885295743324,18.088375840149567,Andrije Hebranga 116A,Hotel
162,Hostel Petra Marina,42.657285,18.088569,,Hostel
163,Jele Rooms,42.65902631777788,18.075047756176314,,Hostel
164,Apartaments Tonko,42.656042,18.090148,,Boarding House
165,Lonza Apartment,42.654771,18.093845,,Vacation Rental
166,Guesthouse Victoria,42.65567398071289,18.091520309448242,,Boarding House
167,Bus stop magistrala 3,42.65666,18.093733,,Bus Stop
168,Nikolina,42.65660685568794,18.089353185543136,,Hostel
169,Apartements Miljas,42.657901,18.088429,Radnicka 6,Residential Building (Apartment / Condo)
170,Apartment Doris & Iris,42.659095,18.089041,,Residential Building (Apartment / Condo)
171,City Apartments,42.654325,18.092665,,Residential Building (Apartment / Condo)
172,Vila Marija,42.656421943807864,18.09022160605368,,Bed & Breakfast
173,Guesthouse Perica,42.662514,18.090052,,Bed & Breakfast
174,Villa Ivan,42.65539981978058,18.093787945157437,,Bed & Breakfast
175,LOBBY Gourmet & Bar,42.657257,18.088583,,Bistro
176,Sinistaj Rooms,42.655971,18.092526,Augusta Cesarca 1,Hostel
177,Appartements Dora,42.659847,18.088614,,Residential Building (Apartment / Condo)
178,S&L Guesthouse,42.65548984270942,18.09143739886141,,Hostel
179,Nicky Guesthouse,42.661345,18.0901,,Boarding House
180,Apartments Depozit,42.65692,18.090353,,Housing Development
181,Krile Rooms,42.65835,18.089118,,Bed & Breakfast
182,Lile Guesthouse,42.650932,18.081895,Petra Hektorovića 18b,Boarding House
183,Zubna Ordinacija Jurišić,42.650619,18.082206,Petra Hektorovića 3,Dentist's Office
184,What's Up,42.650064,18.083113,,Lounge
185,Dubrovnik Dental,42.650543,18.082413,,Dentist's Office
186,Dubrovnik Sensation,42.65005636727261,18.08313536591396,,Government Building
187,Dječji vrtić Palčica,42.64926956805445,18.084311485290527,Iva Vojnovića 34,General College & University
188,The Garden,42.64955365122718,18.082165718078613,,Garden
189,Ispred kuce,42.65036339507478,18.082463802563538,,Scenic Lookout
190,mbm-vrtni centar,42.650066,18.083956,Marka Marojice 4,Garden Center
191,Plaza Cafe,42.649911,18.083086,Iva Vojnovica 37,Café
192,Caffe bar Mirakul,42.650119,18.083159,Iva Vojnovica,Café
193,Grod Dubrovnik,42.64955139160156,18.082910537719727,,Beer Garden
194,Retro cafe,42.650315,18.082947,,Café
195,Lounge Bar Culto,42.65000008164828,18.083151286622755,Iva vojnovica,Lounge
196,Level,42.649906,18.083018,,Cocktail Bar
197,Caffe Bar Petrunjela,42.64965057373047,18.083478927612305,,Pub
198,City cafe,42.65017592431783,18.083251087806524,Iva Vojnovića 34d,Café
199,U Šumi,42.64860304597029,18.080703850366955,,Field
200,Alfaplan Građenje D.o.o.,42.650006,18.083594,Marka Marojice 3,Office
201,HSP dr. Ante Starčević,42.64908244301888,18.082834320093557,Iva Vojnovića 31,Office
202,"Upravni odjel za obrazovanje, šport, socijalnu skrb i civilno društvo",42.649025,18.083277,Iva Vojnovića 31a,Office
203,"Frizerski Salon ""ART""",42.653837,18.080688,Od Batale 21-23,Salon / Barbershop
204,Kauc,42.65059567907511,18.082608535920805,,College Cafeteria
205,Annimi Commerce,42.6483,18.087296,,Office
206,zavod za mediteranske kulture,42.649542,18.084395,,College Administrative Building
207,Doctor Dubravko Jurici,42.650658,18.082801,,Dentist's Office
208,Avax Rent-A-Car,42.646884,18.082634,18 Josipa Kosora,Rental Car Location
209,Croatia Airline,42.653208,18.084021,,
210,Zubna Ordinacija dr. Korda,42.64869718508105,18.08486059569611,Iva Vojnovica 30,Dentist's Office
211,Bazinga,42.650264,18.083257,,Bar
212,Pallacio Levi,42.65241491646171,18.084796912546363,Bana Josipa Jelačića 87,
213,"Veterinarska ambulanta ""CAMPI""",42.647013291917304,18.082498538563097,,Veterinarian
214,Zlatno Zrno,42.651835149135316,18.0826143252565,Iva Vojnovica 50,Bakery
215,Čokolino,42.651549297437846,18.08516743287427,,
216,Mario's Palace,42.651293,18.086708,Kneza Branimia 45,Building
217,Marjana hairdresser shop,42.65184020996094,18.08208465576172,Ulica Iva Vojnovica 61b,Salon / Barbershop
218,RUZA ROOMS,42.651358,18.079974,jajinska19,Boarding House
219,Caffe Paradiso,42.650097244763245,18.083077472464176,Iva Vojnovića bb,Café
220,Optika vangogh 5 (optic shop),42.652683111437234,18.086504783377233,Antununska 5,Optical Shop
221,HP,42.653359903972664,18.077658693625164,,Post Office
222,Caffe bar Cohiba,42.65039,18.08298,Iva Vojnovića 41a,Lounge
223,whats up,42.649959494720896,18.08301957902524,Ul. Iva Vojnovića 37,Nightclub
224,Opca Bolnica Dubrovnik,42.647781924800874,18.07700450988251,,Hospital
225,Emergency Room,42.650066219359935,18.077270814601427,Ante Sercera,Emergency Room
226,"Bolnica Dubrovnik, Medarevo",42.64776093734414,18.076270662303646,Dr. Roka Mišetića,Hospital
227,Solidarnost,42.64745932379443,18.08228433329473,,Other Great Outdoors
228,Bijelo Polje,42.64887619018555,18.08266830444336,,Field
229,Frizerski salon Maja,42.649280482304164,18.08252748523238,Iva Vojnovica,Salon / Barbershop
230,Garaža Dubrovnik,42.65302871973694,18.083783773292804,,Parking
231,Overklox,42.65288360062437,18.08265485060945,Od Sv. Mihajla 17,Electronics Store
232,Sirius d.o.o.,42.64723,18.08211,Josipa Kosora 28,Electronics Store
233,Praonica auta,42.64853,18.077762,,Car Wash
234,Brenum,42.653702,18.084033,,Electronics Store
235,Jens Kapor d.o.o.,42.652429628689006,18.080894897323947,,Electronics Store
236,Torcidin klub,42.651451110839844,18.07686996459961,Fra Filipa Grabovca 1950,Gay Bar
237,kod Vice Marice,42.651984612616026,18.08292116020395,,Rest Area
238,Pekarnica Klas,42.65250145227269,18.085653741478698,,Bakery
239,Gradski Stadion Lapad,42.65401112944086,18.078492345715052,,Soccer Field
240,Caffe bar SV.VLAHO,42.64754486083984,18.07657623291016,Roka Mišetića bb,Café
241,Caffe Bar Kupa,42.65327681626851,18.08114962678385,Od Batale 3-7,Bar
242,Caffe Bar Župaho,42.64827429933725,18.085381640141467,Iva Vojnovica 11,Café
243,Optika vangogh 2 (optic shop),42.65297829087287,18.086493204560178,Nikole Tesle 5,Optical Shop
244,Apartment Helen,42.65275955200195,18.077213287353516,"Josipa Pupacica, 8",Boarding House
245,Studio Kristic,42.6483382030154,18.08772056158111,"Alberta hallera 17, montovjerna",Hostel
246,Auto Dubrovnik d.o.o.,42.65277510471832,18.085202169177787,,Automotive Shop
247,RIT Gym,42.653013,18.078776,,Gym
248,Videoteka Star Wars,42.653211,18.078097,,Video Store
249,"Hair & Cosmetic Studio ""Marijana""",42.652817,18.07914,Iva Vojnovica 61B,Salon / Barbershop
250,Alhambra,42.65237045288086,18.08062744140625,,Salon / Barbershop
251,Sv.Vlaho od Gorice,42.646212,18.08026,Gorica Sv. Vlaha,Historic Site
252,Restaurant Bokar,42.65269,18.078932,Od Svetog Mihajla,Restaurant
253,Apartment Davor,42.653693,18.081831,Od Batale 17,Residential Building (Apartment / Condo)
254,Central Burger,42.652856,18.079442,,American Restaurant
255,Prkoca,42.649294,18.085184,,Automotive Shop
256,Frizerski Salon Katarina,42.648590087890625,18.084949493408203,,Salon / Barbershop
257,Teren Čokolino,42.651237,18.084603,Vlatka Mačeka bb,Soccer Field
258,Villa Music,42.64802360399692,18.081763294073006,Josipa Kosora 22,Bed & Breakfast
259,Suzana's garden,42.65301974886107,18.084009558324514,Svetog Mihajla,Garden
260,Apartmani Toni,42.65388864801828,18.079268107322285,,Bed & Breakfast
261,Frizerski salon šejla,42.652263615528234,18.078006048388804,Ante šercera 1,Nail Salon
262,Bobis,42.652827,18.086535,,Bakery
263,Borgun,42.6531,18.085913,Ulica Nikole tesla 5,Bakery
264,Artemida,42.65209822876287,18.076900303750755,Antuna Barca 6,Motel
265,Libertas Bus Line 10,42.65317327342746,18.08110331232096,Ante Starcevica,Bus Line
266,Privredna banka Zagreb (PBZ),42.64858948531083,18.083332203724396,Josipa Kosora 4,Bank
267,California Apartements,42.652216,18.081151,,Vacation Rental
268,Cocoon Hostel,42.64785959494752,18.082685568334735,Josipa Kosora 40,Hostel
269,Restaurant Belvedere,42.65234738753239,18.08135297632054,Iva Vojnovica,Restaurant
270,Arija Pastry,42.653134,18.0858,"Nikole Tesle, 9",Café
271,Klara Slaticarnica,42.653576,18.084816,,Café
272,"Café bar ""Dvije masline""",42.64777063349814,18.077079769888456,Dr. Roka Mišetića 2,Café
273,time out caffe,42.648422,18.085252,,Sports Bar
274,Atlant Bistro,42.653230832975886,18.084858655929562,Nikole Tesle 14,Eastern European Restaurant
275,Caffe Bar D'el,42.653885,18.083265,,Nightclub
276,Marginoalen Dreioek,42.6534,18.084105,,Fraternity House
277,Autobusno stajalište Square,42.652865,18.079052,,Bus Line
278,Casa Croatia,42.652695,18.08194,,Fraternity House
279,Libertas Bus Line 5,42.653555,18.078203,,Bus Line
280,Villa Astra,42.64898,18.086119,,Hotel
281,Villa Franovic,42.65296710313857,18.07805815163709,,Hostel
282,"Voće i povrće ""Kolak""",42.65372520158942,18.082290122624357,Od svetog Mihajla 25,Fruit & Vegetable Store
283,Green Park Apartments,42.647975,18.083379,,Hotel
284,Guesthouse Cuba,42.653584,18.084352,"Ulica Nikole Tesle 14,",Hostel
285,Villa Mia,42.653755175389904,18.078226039941434,"Zrtava s Dakse 6, Lapad",Housing Development
286,apart dubrovnik,42.65171514528223,18.086012684034596,,Residential Building (Apartment / Condo)
287,Dino & Jele Appartments,42.64925,18.086548,,Residential Building (Apartment / Condo)
288,Teatar,42.65268858813778,18.080099208142244,Iva Vojnovića 72,Restaurant
289,Majsan,42.65341567993164,18.085744857788086,,Historic Site
290,Apartments Topolo,42.648407,18.088001,,Residential Building (Apartment / Condo)
291,Panto Pita,42.65291,18.079276,,Theme Restaurant
292,Peric,42.646944,18.082009,,Bed & Breakfast
293,Hotel IVKA,42.6530554851822,18.08121113307839,Od Svetog Mihajla 21-37,Hotel
294,Ankora Travel,42.64843309340028,18.08572769165039,Iva Vojnovića 32,Travel Lounge
295,Djecji vrtic Palcica,42.64913525895113,18.084009558324514,,Playground
296,Apartment Fiorella,42.65131,18.07923,,Hotel
297,Taverna Otto,42.65323017497588,18.085959297713107,Nikole Tesle 8,Mediterranean Restaurant
298,Americka igraonica Panda,42.652723,18.077568,,Playground
299,Vila Mandic,42.648196801460685,18.086058999233458,,Boarding House
300,Hostel Violet,42.64838260385291,18.084802701923067,Iva Vojnovica 25,Hostel
301,"Sandwich bar ""Buono""",42.648582458496094,18.085559844970703,Iva Vojnovića 28,Sandwich Place
302,Apartment Pavle,42.648328,18.08571,,Motel
303,Rixos Spa,42.64467664357958,18.09143739886141,,Salon / Barbershop
304,Danče Beach,42.64073441525944,18.101016697629596,,Beach
305,Rixos Hotel Beach Dubrovnik,42.64452865013266,18.09168805881849,Dubrovnik,Beach
306,Azzur Fish Restaurant,42.644581155765685,18.091558978404755,Rixos,Seafood Restaurant
307,Sixt Rent a Car - Dubrovnik/Hotel Rixos,42.64542416244349,18.090919804893474,Liechtensteinov Put 3,Rental Car Location
308,University Of Dubrovnik Campus,42.64491483391511,18.09228266715044,,General College & University
309,Müller,42.65065409,18.09294652,Vukovarska ulica 14,Pharmacy
310,Club Boninovo,42.645402751410984,18.096102476119995,Ulica Branitelja Dubrovnika,Beach
311,Coffee Break Dubrovnik,42.643982227786815,18.10024380683899,Branitelja  Dubrovnika 41,Coffee Shop
312,Golden sun Ćasino,42.64583740527365,18.0906037118502,Liechensteinov put 3,
313,Fizikalna terapija Stjepo Jarak,42.64760483644926,18.09381689288309,Ante Starčevića 1,Doctor's Office
314,Sveucilisni Kampus - Kantina,42.64432354370311,18.100324410203687,,College Cafeteria
315,Kantina,42.64440729188331,18.10021440655255,Branitelja Dubrovnika 41,College Cafeteria
316,HRT,42.64615006546229,18.095930084158862,,Building
317,Sixt Dubrovnik Rixos Libertas,42.64701542258575,18.0902737113618,,Rental Car Location
318,Mozaik,42.64531350425884,18.091008695965296,Rixos Libertas,Breakfast Spot
319,Dom zdravlja Dubrovnik,42.64705586140614,18.094326373297253,Ante Starčevića,Doctor's Office
320,Sveucilisni Kampus - Radionica Za Papir,42.64407650747992,18.100278092872138,,University
321,Hrvatski Zavod Za Zdravstveno Osiguranje,42.647767,18.09441,Bana Josipa Jelacica 2,Government Building
322,Villa Bonaca,42.64223814829335,18.09005950070675,Korculanska 2,Bed & Breakfast
323,UNIDU radio,42.644470380340316,18.100104402940385,"Branitelja Dubrovnika 41, 20 000 Dubrovnik, Croatia",Radio Station
324,Globetrotter Tours Schreiter,42.645067,18.09139,,General Travel
325,Vodka Train Tours by www.VodkaTrain.biz,42.64551,18.090727,,General Travel
326,Rixos Fitness & Gym Center,42.64532584547052,18.090968625380377,,Gym
327,Villa Smodlaka,42.645205,18.091915,,Vacation Rental
328,caffe bar moca,42.647836,18.093352,,Wine Bar
329,Rooms La Mirage,42.64805221557617,18.092802047729492,,Boarding House
330,Trgovina Harpoti,42.644238,18.10059,Dubrovačkih Branitelja 24,Convenience Store
331,Oktoberfest Fashion by www.Bembeltown.com,42.645228926820266,18.090528448549954,,Clothing Store
332,Oktoberfest Fashion by www.Bembeltown.com,42.645068,18.091389,,Clothing Store
333,Bmw,42.645676,18.097113,,Moving Target
334,Sveučilišni kampus - Stara bolnica,42.644277441664,18.100288147636686,Branitelja dubrovnika,University
335,Agora,42.645335779865135,18.09098002863826,,Bar
336,Black Jack,42.647781,18.093691,Bana J. Jelačića 11,Bar
337,Skate Shop Kazin,42.647891188203985,18.09345215173747,Bana Josipa Jelačića 9,Board Shop
338,Maro Apartment,42.64733123779297,18.093101501464844,,Assisted Living
339,Apartments BrunoR,42.645032,18.090485,Eugena Kvaternika 2,Vacation Rental
340,Merit Casino Libertas,42.645437,18.091186,Liechtensteinov put 3,Casino
341,Rixos Libertas Dubrovnik Dinner and Breakfest Room,42.64528003572671,18.090933712690376,Rixos Libertas,American Restaurant
342,Rixos Golden Sun Casino,42.645420348419236,18.09082265975045,Liechtensteinov Put,Casino
343,lapad market,42.64476478075572,18.09192950683128,Kralja Tomislava,Farmers Market
344,Plaza ispod Hotela Bellveue,42.64620770039998,18.09225082397461,,Beach
345,Xenia design,42.645656,18.090759,Liechteinsteinov put 3,Women's Store
346,Stijena pored Rixosa,42.64519247087716,18.091292661372044,,Beach
347,Rixos Libertas Dubrovnik,42.64532794598224,18.090978980153526,Liechtensteinov put 3,Hotel
348,Roxy club cafe,42.647742780619986,18.093609615773516,Bana Josipa Jelačića 11,Pub
349,ljetno kino Slavica,42.645563880414734,18.09819382010612,,Movie Theater
350,Klub Orlando,42.64341759849805,18.099380695937512,,Other Nightlife
351,Pušo's Pub,42.640832,18.101087,,Bar
352,Hostel Villa Garden,42.64422607421875,18.100801467895508,,Hostel
353,Youth Hostel Dubrovnik,42.648164663996134,18.09268214406239,Vinka Sagrestana 3,Hostel
354,"Bus station ""Dom zdravlja""",42.647577266268286,18.094737431969172,Branitelja Dubrovnika,Bus Station
355,Libertas Bus Line 1A,42.64799127098774,18.09278056598936,,Bus Line
356,Plus Market,42.64686,18.093554,,Convenience Store
357,Rixos Hotel Kids Club,42.645369,18.090861,,General Entertainment
358,А из нашего окна адриатика видна,42.644378,18.089523,,Residential Building (Apartment / Condo)
359,Bellevue Beach,42.646252513306706,18.09217755669244,Ulica Pera Čingrije 7,Beach
360,Kupalište Danče,42.64084117706823,18.100919723510742,Don Frana Bulića,Beach
361,Rixos SPA & Wellness,42.64472902744504,18.09180792714246,,Spa
362,Lalezar,42.644927978515625,18.090999603271484,,Turkish Restaurant
363,Unofficial Night Nudist Beach,42.643809,18.091728,,Beach
364,Park Grada Bad Homburga,42.646697,18.094418,,Park
365,Ljetnikovac Skocibuha,42.645572662353516,18.09822654724121,,Theater
366,Kate's Place,42.644078,18.088012,,Vacation Rental
367,House Boninovo,42.646540730871656,18.094980593693702,Branitelja Dubrovnika 54,Hotel
368,White & Co Appartments,42.645813,18.097208,Ulica branitelja Dubrovnika 50,Vacation Rental
369,Srđ Mountain,42.64924529165226,18.111598087472444,Srđ,Mountain
370,Dubrovnik Cable Car - Top (Bosanka) Station,42.64923608308871,18.111640219354854,E65,Cable Car
371,Panorama,42.648997272631966,18.11186737936316,Brsalje 1,Café
372,Umjetnička galerija Dubrovnik/The Museum of Modern Art Dubrovnik,42.64170763190644,18.117719273613638,Frana Supila 33,Art Gallery
373,Srđ,42.655929398852706,18.122119903564453,,Mountain
374,Discovery Rent,42.64321673248054,18.111886590016557,"Ulica Kralja Petra Krešimira IV bb., 20000, Dubrovnik",Rental Car Location
375,Dubrovnic Daily Parking,42.64139,18.121435,Ulica kralja Petra Krešimira IV 57A,Parking
376,pekarnica bakery,42.643301,18.111615,,Bakery
377,Guesthouse Enny,42.64335250854492,18.115142822265625,,Hostel
378,Sunny Room,42.642932,18.118089,,Hostel
379,Zigy Secret Garden Apartment,42.642303,18.11644,,Vacation Rental
380,House KiKi,42.642625,18.116811,,Hostel
381,Apartman Nava,42.642779,18.116178,,Vacation Rental
382,Dubrovnik's Appart,42.644392,18.114418,,Residential Building (Apartment / Condo)
383,Apartments Previšić,42.64436214368491,18.114943662785002,Ulica Matije Gupca 22,Residential Building (Apartment / Condo)
384,Angelic Apartments,42.642622,18.118753,,Vacation Rental
385,Apartment Karmen,42.641742,18.120569,,Hostel
386,Dubrovnik Cable Car - Bottom (Grad) Station,42.64301130703256,18.111527168331772,Lokrumska 2,Cable Car
387,Guesthouse Miletic,42.642599,18.112893,1 Put od Bosanke,Bed & Breakfast
388,Pekara Zlatno Zrno,42.643283,18.111711,,Bakery
389,Souvenir Shop,42.649175,18.111678,,Souvenir Shop
390,Buggy Center,42.64336,18.114232,Top of cable Car,Go Kart Track
391,Bikers caffe,42.64248589474673,18.1181621617136,Petra Kresimira IV 39,Café
392,Yummmi Coffee & Fastfood,42.64320148172467,18.111885642598793,,Café
393,Love Hostel Dubrovnik,42.642862,18.111911,Cavtatska 15,Hostel
394,St. Michel Old Town Entrance,42.642592,18.113123,"Put od Bosanke 6, Dubrovnik",Vacation Rental
395,Sea View Rooms,42.643396,18.114551,Matije Gubca 6,Hotel
396,Apartments Dijana,42.643917,18.114886,Ulica Ante Topića Mimare 14,Vacation Rental
397,Apartment Peppino,42.643016,18.110575,,Hotel
398,Villa Dorma,42.64324,18.110447,,Hotel
399,Dubrovnik in Homeland War,42.64930737966026,18.111599990986544,,Art Gallery
400,Zicara,42.6431959251089,18.11162025555183,,Bus Station
401,Apartments Near Old Town,42.64407,18.11552,Brgatska 16,Vacation Rental
402,Babin Kuk Bus Stop,42.643264,18.111667,,Bus Station
403,Apartments Nadramija,42.64349,18.11689,Put od Bosanke 27,Vacation Rental
404,La Boheme,42.64297,18.113071,,Vacation Rental
405,Apartments Isabora,42.643966,18.113688,,Vacation Rental
406,Apartments Ante,42.644111,18.115348,Brgatska 13,Residential Building (Apartment / Condo)
407,Apartements Banje Beach,42.642573,18.117101,,Residential Building (Apartment / Condo)
408,Appartments MAK,42.64341354370117,18.112844467163086,,Residential Building (Apartment / Condo)
409,Rooms Raic,42.642779,18.118536,"Ulica Bruna Bušića, Dubrovnik, Croatia",Roof Deck
410,Ploče,42.643535518717584,18.117288596872534,,Housing Development
411,Apartments Olaf,42.642701,18.112142,,Residential Building (Apartment / Condo)
412,Apartments Lora,42.644019,18.114828,,Residential Building (Apartment / Condo)
413,Ragusa2,42.6431555,18.1130772,,Restaurant
414,Apartment Luca,42.643966,18.115503,,Residential Building (Apartment / Condo)
415,Casa Vanna,42.642826055449994,18.112517595291138,Obodska ulica 1,Bed & Breakfast
416,Villa Kosuta,42.643422,18.110415,Od Greba Zudioskih 2,Bed & Breakfast
417,Gornja postaja žičare - Srdj,42.64908361554872,18.11165499481692,,Other Great Outdoors
418,Prijeko Street,42.64345665740636,18.111359711187134,,Other Great Outdoors
419,Restoran Horizont,42.642582079023924,18.11305357286951,Put od Bosanke 8,Mediterranean Restaurant
420,Takenoko,42.64253,18.112977,,Japanese Restaurant
421,Nodilo Apartments,42.642096,18.118549,,Bed & Breakfast
422,Villa Gloria,42.642775,18.11425,Ulica iva Racica 3,Bed & Breakfast
423,Fort Imperial,42.649224699147766,18.11160542782729,,History Museum
424,The Wall SOCIALHOUSE,42.642685,18.112423,,Italian Restaurant
425,Fun Studio Apartment,42.64163589477539,18.11887550354004,,Boarding House
426,Apartmani Solea,42.64400100708008,18.11360740661621,,Residential Building (Apartment / Condo)
427,Brand New and Best Location,42.64332580566406,18.11068344116211,,Residential Building (Apartment / Condo)
428,heritage,42.643480232235106,18.110387014151538,Petra Kresimira IV 7,Antique Shop
429,Unique Apartments,42.6440779183176,18.116518530153925,,Residential Building (Apartment / Condo)
430,Happy Gelato,42.642964,18.111285,,Ice Cream Shop
431,Pension Stankovich,42.64389575432551,18.11459626664209,Matije Gupca 15,Bed & Breakfast
432,Apartment Ina,42.64171867295349,18.118353955466524,,Assisted Living
433,Villa Ragusa,42.641563,18.119962,,Hotel
434,Ploče Apartments,42.642072,18.119662,,Vacation Rental
435,Villa Kosovic,42.64486345757658,18.110618608408235,,Residential Building (Apartment / Condo)
436,87 Stairs Apartments,42.643074,18.116714,,Residential Building (Apartment / Condo)
437,Apartments Rebecca,42.643785,18.11465,,Vacation Rental
438,Apartments Adriatic Star,42.64228820800781,18.11539077758789,,Hostel
439,Villa Ari,42.64339,18.11327,,Residential Building (Apartment / Condo)
440,Apartment Amarin,42.643838,18.113726,Ante Tropica Mimare,Residential Building (Apartment / Condo)
441,Konoba BoGo,42.67319508109158,18.11433881521225,Gorava 41,Mediterranean Restaurant
442,Caffe bar Vapor,42.674182,18.099904,,Coffee Shop
443,MIB Pivac,42.65972,18.08944,Obala S.Radića 19,
444,"Villa ""MIA""",42.65195646949681,18.096952736377716,Od Gaja 22,Vacation Rental
445,OTP BANKA,42.675462,18.106868,,
446,Ostric Pub,42.67731802792977,18.104839976105875,,
447,frizerski salon Andrea,42.67101287841797,18.117589950561523,,Salon / Barbershop
448,Klub mladih Drito - Mokošica,42.675425,18.106024,Bartola Kašića 8,Community Center
449,Svratiste,42.65926657117184,18.08913318606732,,Animal Shelter
450,zio Aparment,42.65980095445277,18.09122318740118,,Residential Building (Apartment / Condo)
451,Apartments Husanovic,42.67506790161133,18.101726531982422,61,Building
452,Frizerski salon Miluka,42.65703768744,18.092056876080285,Ulica Silvija Strahimira Kranjcevica 30,Miscellaneous Shop
453,Nauticki Centar Mokosica,42.673483,18.094021,Na Moru 24,Boat or Ferry
454,Pazi d.o.o.,42.676236,18.108205,Od Izvora bb,Electronics Store
455,SUNSAIL ADRIATIC d.o.o.,42.67082112447216,18.127235945187504,Komolac,Boat or Ferry
456,Beach Bar Hawaii,42.659581838640804,18.091460556865986,,Pizza Place
457,Bistro Pizzeria Panika,42.676232,18.10879,Od Izvora bb,Pizza Place
458,Caffe Bar Zodiac,42.676204,18.108437,Od Izvora 61,Bar
459,Pizzeria River,42.675178,18.099166,,Pizza Place
460,Vino Bar Tina,42.67337136156003,18.094094791186976,,Wine Bar
461,Rooms Adrijana,42.65579605102539,18.091705322265625,"Augusta Cesarca 4,",Hostel
462,Let's Ride,42.65983402689878,18.091101607989682,,Travel Agency
463,opskrbni centar Mokosica,42.675365399897586,18.105789903818366,Bartola Kasica 8,Shopping Mall
464,perak pero,42.660343170166016,18.088909149169922,"mljestka, 11",Boarding House
465,Niz rijeku,42.673506465374665,18.09404847478569,,Dog Run
466,Libertas,42.657812,18.091802,,Historic Site
467,The Moorings,42.67056955874229,18.126981177951333,,Harbor / Marina
468,Na Moru,42.673439742534725,18.09381689288309,,Dessert Shop
469,"ACI Marina ""Miho Pracat"" Dubrovnik",42.67061710564652,18.124080320190455,Croatia,Harbor / Marina
470,Marina Store ACI,42.669523,18.12828,,Sporting Goods Shop
471,Srđ Mountain,42.64924529165226,18.111598087472444,Srđ,Mountain
472,Akvarij / Aquarium,42.639913610691416,18.112276196479797,Ul. kneza Damjana Jude 2,Aquarium
473,Dubrovnik Cable Car - Top (Bosanka) Station,42.64923608308871,18.111640219354854,E65,Cable Car
474,Hotel Adria,42.65798973376725,18.091748125373204,"Radnicka, 46",Resort
475,Hotel Adria Pool,42.657817,18.091885,,Hotel Pool
476,Konoba TIME,42.6734908680144,18.0940111643615,Uz Jadransku cestu 3,Bar
477,Pizzeria Laus,42.67389481565353,18.116860138463675,Ulica Od Izvora,Pizza Place
478,Rosa Bianca,42.675415,18.097843,,Italian Restaurant
479,Cafè Bar Song,42.658106505538875,18.091790558619383,"St jepana cvijica, 22",Cocktail Bar
480,Restaurant Bazen,42.670835,18.125295,,Café
481,Caffe Bar Panther,42.67516955388717,18.113721988062267,,Bar
482,Kod Kuma,42.65686798095703,18.09053611755371,,Karaoke Bar
483,Pizzeria Šumica,42.676267,18.109155,72 Od Izvora,Pizza Place
484,Souvenir Shop,42.649175,18.111678,,Souvenir Shop
485,Hostel Center Dubrovnik,42.650836,18.098242,4 Budvanska,Hostel
486,Guesthouse Petrusić,42.65245,18.096085,Od Gaja 30,Boarding House
487,Apartment Dubrovnik Travel,42.65082518336283,18.098286454154014,Ulica Budanksa,Hostel
488,Libertas Bus Line 1B,42.6763074840718,18.10682627414665,Od Izvora,Bus Line
489,INA Petrol Station For Ship,42.671386270693944,18.12566102377781,,Gas Station
490,Apartments Gera,42.65534719343102,18.093139516811544,Janjevska 4,Boarding House
491,Apartment Anet,42.658639,18.090904,,Vacation Rental
492,Guesthouse Rainbow,42.653274,18.096418,,Vacation Rental
493,Apartments Dubrovnik Palm Tree Paradise,42.658735,18.090178,,Vacation Rental
494,Lovely Sleep,42.673213,18.11422,,Hotel
495,Red Dwarf Guesthouse,42.657328,18.091762,,Hostel
496,Studenac,42.655502,18.091782,Stjepana Cvijica 3,Convenience Store
497,Dilberovic,42.660105426077216,18.091228976898154,,Resort
498,Apartment Purple Petra,42.658773,18.090384,,Hotel
499,Jele Rooms,42.65902631777788,18.075047756176314,,Hostel
500,Dubrovnik in Homeland War,42.64930737966026,18.111599990986544,,Art Gallery
501,Lonza Apartment,42.654771,18.093845,,Vacation Rental
502,Family Petrovic,42.654602803743884,18.094158476250055,Od Gaja 44,Boarding House
503,Kod Saare,42.653795,18.093546,,Art Gallery
504,Guesthouse Brunsko / Nina,42.65589904785156,18.093366622924805,Janjevska 13,Hostel
505,Dubrovnik Royal Palace,42.672192,18.122921,,Hotel
506,red dwarf guesthouse,42.657282,18.091754,,Hostel
507,Bus stop magistrala 3,42.65666,18.093733,,Bus Stop
508,Rooms & Apartments Abba,42.659875,18.089978,"Đura Basaričeka 7, 20000 Dubrovnik",Hotel
509,Villa Banana,42.65104596745354,18.098124344588346,,Hostel
510,Guesthouse Victoria,42.65567398071289,18.091520309448242,,Boarding House
511,Magnificent View Hostel,42.650847,18.098217,Budvanska 4b,Hostel
512,Djecje igraliste Novi dom Mokosica,42.674924851976805,18.112187664033506,,Playground
513,Guest House Ivona,42.65874,18.089314,,Hotel
514,Apartman A Kind Of Magic Dubrovnik,42.651615,18.098332,,Residential Building (Apartment / Condo)
515,Restaurant ACI Marina Dubrovnik,42.67072309004876,18.12542941835696,,Restaurant
516,City Apartments,42.654325,18.092665,,Residential Building (Apartment / Condo)
517,Apartmani Laurels,42.674805,18.098146,Ulica uz jadransku cestu 80,Residential Building (Apartment / Condo)
518,Pivnica Marina,42.669367763754245,18.12812628111268,,Restaurant
519,Apartment Doris & Iris,42.659095,18.089041,,Residential Building (Apartment / Condo)
520,VILA Pralas,42.672584161399975,18.12183376620784,Pralas,Residential Building (Apartment / Condo)
521,Villa Dadić,42.663333,18.089271,91A Od Nuncijate,Residential Building (Apartment / Condo)
522,Apartment Denis,42.657939,18.090651,,Residential Building (Apartment / Condo)
523,danica guesthouse,42.65964889526367,18.091304779052734,"Radnicka 33,",Bed & Breakfast
524,Konoba Bonaca,42.670436022620876,18.09511954333622,,Food
525,Rooms Batina,42.650642,18.099088,Marka Gjaje 1,Bed & Breakfast
526,Apartment Jelena,42.651917,18.0979,,Bed & Breakfast
527,Guesthouse Perica,42.662514,18.090052,,Bed & Breakfast
528,Marina Dubrovnik,42.67060045038008,18.123061262774282,,Harbor / Marina
529,Srđ,42.655929398852706,18.122119903564453,,Mountain
530,Dubrovnik Rooms,42.652952,18.095539,Ad Gaja 36,Bed & Breakfast
531,Uz Rijeku,42.674872597868735,18.095843240397933,,Trail
532,INA ACI Marina,42.67051658964312,18.12662218810702,Dubrovnik,Harbor / Marina
533,Villa Ivan,42.65539981978058,18.093787945157437,,Bed & Breakfast
534,Kraš,42.65641156437844,18.091888980263036,,Dessert Shop
535,Gornja postaja žičare - Srdj,42.64908361554872,18.11165499481692,,Other Great Outdoors
536,Tommy Market,42.658367,18.090262,Ulica Stjepana Cvijića 34,Grocery Store
537,Villa Alliya,42.662686387450364,18.088450030797297,,Motel
538,Konzum,42.66945695752343,18.127675998174936,Aci Marina,Grocery Store
539,Franjevacki Samostan Pohodenja Marijina,42.671793,18.125171,,Church
540,Rijeka Dubrovacka,42.675080407958916,18.09319162261062,,River
541,Cafe Bar Bistro Nava,42.67058806257307,18.126697460137017,,Food
542,Panorama,42.648997272631966,18.11186737936316,Brsalje 1,Café
543,Fort Imperial,42.649224699147766,18.11160542782729,,History Museum
544,ACI marina Dubrovnik,42.67065095520073,18.124259813602194,Na Skali 2,Harbor / Marina
545,Sinistaj Rooms,42.655971,18.092526,Augusta Cesarca 1,Hostel
546,Pemo,42.675407,18.106134,,Grocery Store
547,Caffe bar Kiss,42.67626027322154,18.106622228060317,Od izvora 80,Bar
548,m/y Elena,42.670862,18.123579,,Cruise
549,S&L Guesthouse,42.65548984270942,18.09143739886141,,Hostel
550,Panorama Guesthouse,42.65206081958255,18.098182240852076,Majkovska 1 Gruz,Boarding House
551,Magdalena,42.66999578538253,18.127293846861022,,Salon / Barbershop
552,villa kety,42.67236070989403,18.12170059470052,,Hotel
553,Djecji vrtic Pcelica Mokosica,42.675054,18.104007,,Playground
554,Guesthouse Martin,42.65067,18.098757,Tivatska 1,Vacation Rental
555,Valamar President,42.66806501853403,18.090597922364918,,Hotel
556,Nicky Guesthouse,42.661345,18.0901,,Boarding House
557,Apartments Depozit,42.65692,18.090353,,Housing Development
558,Euromarine Dubrovnik,42.670817,18.127037,,Harbor / Marina
559,Vidikovac Most Dr. Franje Tudjmana,42.669719139266974,18.07800025913954,Republic of Ragusa,Bridge
560,Restauratorski Zavod Dubrovnik,42.66854206874715,18.085920053657695,,College Lab
561,Mein Schiff 2,42.66874604747303,18.087465826704516,,Moving Target
562,Copacabana Beach,42.66367726173744,18.064827919006348,Dubrovnik,Beach
563,"Carnival Magic, Port of Dubrovnik",42.66384214857691,18.08189065913491,Obala Ivana Pavla 2,Boat or Ferry
564,Villa Dadić,42.663333,18.089271,91A Od Nuncijate,Residential Building (Apartment / Condo)
565,MIB Pivac,42.65972,18.08944,Obala S.Radića 19,
566,Autobusni Kolodvor Dubrovnik | Dubrovnik Bus Station,42.66302702066926,18.083641433070632,Obala Ivana Pavla II bb,Bus Station
567,Love bar,42.660388,18.086529,,Bar
568,Dubrovnik Brewing Company (Dubrovačka Pivovara),42.660749,18.085638,Obala Pape Ivana Pavla II 15,Brewery
569,Lager d.o.o. - Autodijelovi,42.663132891501526,18.08372139930725,Obala  Ivana Pavla 2 29,Automotive Shop
570,B17a,42.66397609066949,18.08316431264293,,College Classroom
571,TUP,42.6593917608261,18.0868864059448,Sv. Križa 3,Office
572,Crew Service Center Dubrovnik,42.66405143732503,18.081711190199186,,General College & University
573,Branitelja Dubrovnika,42.673997,18.090554,,
574,Bistro 49,42.663484,18.083367,,Bistro
575,Liv Spa,42.664087,18.082017,,Nail Salon
576,Adriatoc Hotel,42.662343861097675,18.083934296628943,,
577,Msc Sinfonia @ Dubrovnik,42.663008,18.082419,,Boat or Ferry
578,MSC Armonia,42.661094,18.083614,,Boat or Ferry
579,Aurora,42.663065,18.083093,,Boat or Ferry
580,Lounge Bar,42.660123,18.084194,,Lounge
581,Caffe Bar S.baza,42.6603779660575,18.085346903817783,Pape Ivana Pavla II 14,Sports Bar
582,Svratiste,42.65926657117184,18.08913318606732,,Animal Shelter
583,Oniks Trgovina d.o.o.,42.667618,18.083115,Na Moru 18,Winery
584,MSC Magnifica,42.66369,18.081625,,Cruise
585,Apartment Coral,42.663655,18.083766,Koritska ul. 1,Vacation Rental
586,Nicky Guesthouse,42.661345,18.0901,,Boarding House
587,Dubrovnik Port Apartment,42.6638116619459,18.082388541244566,,Hostel
588,AIDAaura,42.666063,18.078738,,Cruise
589,La Belle de l'Adriatique,42.660059,18.084045,,Cruise
590,Crystal Esprit,42.659622,18.084637,,Cruise
591,Silver Spirit In Dubrovnik Croatia,42.659668,18.085155,,Cruise
592,Viking Star,42.664033,18.080399,,Cruise
593,DanceWorks Studio,42.6631,18.083027,,Dance Studio
594,Crown Princess,42.66229248046875,18.08342742919922,,Boat or Ferry
595,Apartament Gravosa,42.6602783203125,18.087400436401367,,Bed & Breakfast
596,Figa,42.663677,18.083267,,Mediterranean Restaurant
597,Ruz Marin,42.663496,18.083271,,Bistro
598,Na Moru,42.67514107539579,18.091640031460177,,Beach
599,"Studio Apartman ""Iva & Klara""",42.664999409813085,18.081601193161106,Obala Pape Ivana Pavla II 72a,Bed & Breakfast
600,TUI Cruises Mein Schiff 3 Spa & Welness,42.661013,18.084179,,Hotel Pool
601,Celebrity Silhouette,42.663050190444395,18.08415429240598,,Boat or Ferry
602,Croatia,42.66385728426586,18.081770944271074,,General Travel
603,Rhapsody Of The Seas,42.664618,18.079841,,Boat or Ferry
604,"M/V Zenith - Dubrovnik, Croatia",42.66500741945911,18.080877529413883,,Boat or Ferry
605,Msc Musica,42.663851,18.080717,,Boat or Ferry
606,Marina Store Gruz,42.66145,18.085525,,
607,AIDAblu,42.659727,18.084957,,Cruise
608,AIDAaura,42.66151558138642,18.083708511652233,,Cruise
609,Appartements Dora,42.659847,18.088614,,Residential Building (Apartment / Condo)
610,Villa Alliya,42.662686387450364,18.088450030797297,,Motel
611,Caffe bar Bus,42.6626,18.083791,,Café
612,Bistro & Bar Pizzeria Piccolo,42.663566,18.083222,,Pizza Place
613,Caffe Bar Ferata,42.663100896574086,18.083702722296028,Obala Pape Ivana Pavla II br. 40,Bar
614,La Bombonera Club,42.660698,18.085829,"Obala Ivana Pavla II, 20000, Dubrovnik, Croatia",Nightclub
615,Valamar President,42.66806501853403,18.090597922364918,,Hotel
616,costa delizioza,42.660293,18.084929,,Cruise
617,Mein Schiff 6,42.6647,18.080202,Dubrovnik Port,Border Crossing
618,Anchi GuestHouse & Apartments,42.6616325378418,18.085351943969727,,Boarding House
619,Rooms & Apartments Abba,42.659875,18.089978,"Đura Basaričeka 7, 20000 Dubrovnik",Hotel
620,AUTO SERVISNI CENTAR - ASC,42.6608,18.085924,"Obala pape Ivana Pavla II 15, 20000, Dubrovnik, Croatia",Auto Workshop
621,Norweign Jade,42.663033,18.082416,,Cruise
622,Villa Karmen,42.659774,18.087872,,Boarding House
623,Tui Marella Celebration,42.662956,18.081871,,Cruise
624,MSC Poesia,42.663901,18.081951,,Cruise
625,Hostel Sol,42.66145324707031,18.085527420043945,Obala Ivana Pavla II 13,Hostel
626,Apartament Panorama,42.65940893271986,18.08791740231126,,Residential Building (Apartment / Condo)
627,Apartment Grebovic,42.661144,18.0868,,Housing Development
628,Bistro Gatto,42.663079953516934,18.08392069164625,Obala Pape Ivana Pavla II 37,Restaurant
629,Bungee Jumping,42.668585,18.079065,Dubrovnik Bridge,Athletics & Sports
630,krka,42.669347759870526,18.07839392833715,,Trail
631,Kruzni Tok,42.661249,18.085687,,Fast Food Restaurant
632,Konoba Bonaca,42.670436022620876,18.09511954333622,,Food
633,Island Korcula,42.66358961829486,18.084102188128842,Island Korcula,Other Great Outdoors
634,Rijeka Dubrovacka,42.675080407958916,18.09319162261062,,River
635,Fitness Center,42.663441,18.082231,,Gym / Fitness Center
636,Maxi Konzum,42.66231547152788,18.08228433329473,Dr. Tuđmana 1,Grocery Store
637,Pietrus Port Greece,42.662277,18.082192,,General Travel
638,ms Nieuw Amsterdam,42.663173,18.082898,,Boat or Ferry
639,msc preziosa,42.6626530580459,18.081601193161106,,Boat or Ferry
640,Ruby Princess,42.661287,18.082633,,Boat or Ferry
641,Crown Princess,42.664757,18.080343,,General Travel
642,MSC Fantasia,42.661167,18.083364,,Boat or Ferry
643,Nauticki Centar Mokosica,42.673483,18.094021,Na Moru 24,Boat or Ferry
644,Studio s,42.6616819511275,18.084073241312005,Hotel Argosy,Nail Salon
645,Carnival Sunshine In Dubrovnik,42.66151647061458,18.084009558324514,,Boat or Ferry
646,"Izmar, Turkey",42.662277,18.082192,,Tourist Information Center
647,split,42.66889804957473,18.07871233761448,,Café
648,"Pred Crkvom, Osojnik",42.67440588171126,18.090980028625918,,Bar
649,Caffe,42.660336,18.085779,,Bar
650,Vino Bar Tina,42.67337136156003,18.094094791186976,,Wine Bar
651,Niz rijeku,42.673506465374665,18.09404847478569,,Dog Run
652,Luxus d.o.o.,42.667666,18.082547,,Automotive Shop
653,Skoda,42.673392,18.091537,,Auto Dealership
654,Velpro,42.669,18.0827,,Shopping Mall
655,perak pero,42.660343170166016,18.088909149169922,"mljestka, 11",Boarding House
656,Apartmani Vuletic,42.668581776445045,18.08509217089672,,Hotel
657,SUPERKONZUM,42.6614755238619,18.084214554575617,Obala Ivana Pavla II,Shopping Mall
658,Djecje igraliste Mokosica Na moru,42.673232,18.090873,,Playground
659,Villa Sunny,42.663209,18.084204,,Residential Building (Apartment / Condo)
660,"Serenade of the Seas, Port of Dubrovnik",42.66385418276982,18.082139600089405,,Boat or Ferry
661,Azamara Journey,42.665046,18.079824,,Waterfront
662,Rooms Kaja,42.66122,18.086759,I. G. Kovacica 35,Bed & Breakfast
663,Na Moru,42.673439742534725,18.09381689288309,,Dessert Shop
664,Pizzeria RETRO,42.66353813535862,18.08311324074972,,Pizza Place
665,Super Konzum,42.66183479522681,18.08426880068051,Ivana Pavla II bb,Supermarket
666,Glavinic,42.660646,18.085796,,Bakery
667,celebrity equinox,42.66103744506836,18.084732055664062,,Boat or Ferry
668,Mein Schiff 3,42.66347248039309,18.083488516192613,,Boat or Ferry
669,MSC Divina,42.66338694054586,18.08221486134771,,Boat or Ferry
670,la belle de l'adriatique,42.660223,18.0844,,Boat or Ferry
671,Pupo,42.6630742406598,18.08362167132051,,Bakery
672,Caffe Info,42.663751,18.079564,,Café
673,Konoba TIME,42.6734908680144,18.0940111643615,Uz Jadransku cestu 3,Bar
674,Pupo Rooms,42.664674,18.083202,"Sipanska 12, Gruz, Dubrovnik",Hotel
675,MSC Lirica,42.661762,18.083258,,Cruise
676,Guest House Dada,42.663967,18.082897,,Boarding House
677,main bus station apartments,42.66408750862058,18.081371784210205,Obala Ivana Pavla 70,Residential Building (Apartment / Condo)
678,Guesthouse Perica,42.662514,18.090052,,Bed & Breakfast
679,Villa Boro,42.657469,18.071846,Petra Svacica 43,Bed & Breakfast
680,Villa Marija,42.6571807279575,18.071684252954263,,Resort
681,Restaurant Eden,42.65689432956734,18.070665367661583,,Seafood Restaurant
682,Tuttobene,42.65628034647715,18.074242526600948,šetalište kralja zvonimira bb,Fast Food Restaurant
683,"Babin Kuk, Dubrovnik",42.65818101103961,18.07372203365397,,Beach
684,Apartmani Roko,42.657791,18.071413,Klisevska 47,Residential Building (Apartment / Condo)
685,Boliniza Hospital Dubrovnic Croazia,42.65820007119362,18.07538352959809,,Hospital
686,Adriatic Luxury Hotels,42.6565579,18.0698163,,
687,Enterprise Rent-a-car,42.656829833984375,18.07309913635254,Kardinala Stepinca 32,Rental Car Location
688,MIB Pivac,42.6558,18.074,Marka Marulica 13,
689,Villa Bakara,42.65749967388361,18.07103587101419,Petra Svacica 42,Boarding House
690,Begovic Boarding House,42.65715026855469,18.07286262512207,Primorska 17,Hostel
691,Apartments Zore Glavinic,42.65739440917969,18.07012176513672,Petra Svacica 29-31,Boarding House
692,Apartments Anita,42.656609,18.072563,,Hotel
693,Villa Perla,42.656592,18.073284,,Hotel
694,Cosmopolitan House Dubrovnik,42.65716,18.072334,34A Petra Svacica,Residential Building (Apartment / Condo)
695,Guest House Nenada,42.658154,18.072857,,Residential Building (Apartment / Condo)
696,Hotel Perla,42.65600276172935,18.072397456850858,,Hotel
697,Villa Ruza,42.65610981670869,18.072923129386485,Stonska 1,Residential Building (Apartment / Condo)
698,Caffe bar Puls,42.65597365190539,18.07250187941302,Setaliste kralja Zvonimira,Café
699,Hotel Dubrovnik ***,42.65604395341589,18.07274434521893,,Hotel
700,Caffe bar Promenada,42.65591407057806,18.071888302372038,Setaliste Kralja Zvonimira 22,Bar
701,Restaurant Uvala,42.655997879000815,18.072703141618717,Setaliste kralja Zvonimira bb,Seafood Restaurant
702,Slastičarna Sirena,42.65599709546989,18.07284787039562,Šetalište kralja Zvonimira 40,Ice Cream Shop
703,argora,42.65597937178108,18.072436840846912,Kralja Zvonimira 40 c,Mediterranean Restaurant
704,Pullover,42.655953,18.072568,,Restaurant
705,Avanga Bar,42.655817,18.070009,,Bar
706,Kompas Hotel Dubrovinik,42.6559407573914,18.069874844861086,Setaliste kralja Zvonimira 56,Hotel
707,Šetalište Uvala Lapad,42.6561897805936,18.073689937591553,Šetalište kralja Zvonimira,Pedestrian Plaza
708,Hotel Kompas,42.65605254320966,18.06996349944172,Šetalište Kralja Zvonimira 56,Hotel
709,Sunset Beach,42.65507591802953,18.070981170521744,,Beach Bar
710,Avis,42.656896,18.07009,,Rental Car Location
711,Zenith Bar,42.65605,18.069683,,Beach Bar
712,Bedje @Dubrovnik,42.656746,18.069813,Hotel Kompas Dubrovnik,Hotel
713,Silva Apartments,42.65689323223923,18.069779634891837,,Hostel
714,children playground,42.655813,18.072334,,
715,Villa Karolina,42.65637520328992,18.072863817214966,Stonska 4,Bed & Breakfast
716,Cafe Bar Adriatic,42.655340368296535,18.072581569498674,,Hotel Bar
717,Konzum,42.65579323049055,18.07054379634618,Od svetog Mihajla 39A,Grocery Store
718,Brigita Rooms,42.65839198931055,18.07272050906835,Dubravkina 16,Bed & Breakfast
719,Belkin beach,42.65621899358714,18.073386262042757,,Beach
720,Frizerski salon Katica,42.656817,18.070409,,Salon / Barbershop
721,Guest House Sea Stone,42.656575,18.071721,,Residential Building (Apartment / Condo)
722,Anna Guesthouse Dubrovnik,42.65887771518161,18.074133064917614,Velebitska 1-7,Hostel
723,Guesthouse Mary,42.658408,18.073718,Mostarska 2b,Hotel
724,Plaža Uvala Lapad,42.655261370962556,18.07014434807654,Lapad,Beach
725,Šetinca Walking trail,42.656018662958424,18.06928177314702,,Trail
726,Villa Curvić,42.65810890151939,18.072894183618594,,Hotel
727,"Zenith Rooftop Bar, Hotel Kompas",42.65588,18.069853,,Hotel Bar
728,Room 611,42.655396,18.072713,,Hotel
729,Caffe Slasticarna,42.65587838308362,18.07330736243959,Setaliste Kralji Zvonimira 2b,Café
730,Luma Restaurant & Lounge,42.656384,18.074322,Šetalište kralja Zvonimira 9,Restaurant
731,Caffe bar Van,42.656051477731296,18.073129017924444,Setaliste kralja Zvonimira 12,Café
732,Tenis Klub Dubrovnik,42.65617356519073,18.07450357244208,,Tennis Court
733,Dubrovnik Backpackers Club,42.65899015148641,18.073835348151334,Mostarska 2d,Hostel
734,Restaurant Konavoka,42.65613974959696,18.073527710624443,Lapad (2nd floor),Mediterranean Restaurant
735,Hotel Kompass,42.655757904052734,18.07041358947754,,Hotel
736,Bianco,42.656636,18.075338,,Pizza Place
737,Vulic,42.65825653076172,18.075130462646484,"Biokovska, 4",Hotel
738,Ljekarna,42.656732,18.075508,Kardinala Stepinca 1b,Pharmacy
739,Vala,42.655645202328984,18.0701790826881,,Cocktail Bar
740,Epic cafe&bistro,42.6566,18.0754,Lapad,Café
741,milena's apartments,42.659318,18.075087,,Residential Building (Apartment / Condo)
742,Art Cafe Konavoka,42.656039,18.073511,,Mediterranean Restaurant
743,Restaurant of Hotel Sumratin,42.656179,18.073855,,Restaurant
744,Sphere,42.65591540961767,18.06988975156455,,Restaurant
745,Guesthouse Old Sailor,42.659238,18.07516,,Bed & Breakfast
746,Trampolin,42.6558172982186,18.0711521487683,,Playground
747,Caffe Bar Shark,42.65537646,18.07025726,beach,Bar
748,Grand Park Hotel Cafe,42.655506829793445,18.072390527692715,,Café
749,Luna pool bar,42.655978,18.069887,,Lounge
750,Caffe bar Antika,42.656352968927955,18.074298001893155,Setaliste kralja Zvonimira bb,Café
751,Grand Hotel Park pool bar,42.65530130615593,18.07240210598061,Grand Hotel Park,Hotel Bar
752,Koogla,42.655968,18.069975,,Frozen Yogurt Shop
753,Marianno Restaurant,42.655467,18.073605,Mate Vodopića 2,Mediterranean Restaurant
754,Outdoor Pool - Hotel Kompas,42.655862255206074,18.06991278409965,,Pool
755,Taverna Playground,42.655059,18.071731,,Playground
756,Grand Hotel Park outdoor pool,42.65560001987324,18.07240210598061,Grand Hotel Park,Pool
757,Sumratin Hotel Dubrovnik,42.65598884569466,18.07360046113178,Setaliste kralja Zvonimira 31,Hotel
758,Grand Hotel Park,42.65542141192389,18.072733971160893,Šetalište kralja Zvonimira 39,Hotel
759,Grand Hotel Park - Breakfast,42.655597,18.072094,,Hotel
760,Villa Ćurić,42.658225454804075,18.073689937591553,Mostarska 2f,Hotel
761,Apartments Nike,42.65754699707031,18.070730209350586,Petra Svacica 39,Boarding House
762,Vila vala,42.656552,18.07166,Stonska 12,Residential Building (Apartment / Condo)
763,Restaurant Taverna Marijin Dvorac,42.6549987428116,18.072002655299745,Grand Hotel Park,Mediterranean Restaurant
764,Grand Hotel Park Fitness,42.65526,18.072696,,Gym / Fitness Center
765,Hotel Kompas Wellness & spa,42.656489,18.070218,,Spa
766,Tirena Hotel,42.657951,18.0738637,,Bed & Breakfast
767,A&D Bistro-Pizzeria,42.656609,18.075419,,Eastern European Restaurant
768,Vox Populi - kod Brzog,42.656639,18.07538,,Bar
769,Caffee Bar Blue Planet,42.65450957396497,18.071302737846512,,Bar
770,Villa Antea Apartments,42.66051483154297,18.07176399230957,Iva Dulcica 24,Boarding House
771,Grand Hotel Park,42.65530232882831,18.072025811846807,,Playground
772,Dubrovnik Sailing,42.65603,18.068954,,Boat Rental
773,Paladium,42.656012,18.072982,,Restaurant
774,LTK Dubrovnik,42.65736953513853,18.069872260421608,,Athletics & Sports
775,Movida Cafe&Bar,42.656042379668094,18.07302634299785,,Bar
776,Caffe bar Ae,42.656300245245234,18.07428002357483,Setaliste kralja Zvonimira bb,Café
777,BodyMove Pilates studio,42.65947235986498,18.07412727574108,,Yoga Studio
778,Caffe bar Vala,42.65552941871745,18.070202239097988,Lapadska Obala,Café
779,appartementjeu,42.658913,18.074267,,Arcade
780,Plitvica Vila Zagreb,42.659339904785156,18.07368278503418,,Residential Building (Apartment / Condo)
781,silvijina jama,42.65682352650399,18.07425463764997,,Residential Building (Apartment / Condo)
782,Vrini Restoran,42.656105,18.073761,,Mediterranean Restaurant
783,Trinity Oriental Fusion Lounge,42.65544,18.07366,Matka Vodopića 2A,Thai Restaurant
784,Igralište Uvala Lapad,42.655795,18.072357,,Playground
785,Dubrovnik Backpackers Club,42.658959306331205,18.07375676866912,Mostarska 2d,Hostel
786,Taraca,42.65607763343604,18.07386097373807,,Pizza Place
787,Villa Timy,42.657054,18.074466,Kardinala Stepinca 24,Hotel
788,Room 609,42.655449,18.071953,,Hotel
789,Boutique & Beach Hotel Villa Wolff Dubrovnik,42.65591080977342,18.069490180291012,Nika i Meda Pucica 1,Hotel
790,Accademia del Caffé,42.6562374830246,18.074171,,Restaurant
791,Grand Hotel Park Spa,42.65566,18.072454,,Recreation Center
792,Jet ski Lapad beach,42.654712,18.070101,,Athletics & Sports
793,Beach Volley Court Lapad Beach,42.6552560441588,18.070688524108057,,Volleyball Court
794,Tramonto,42.655102,18.07039,,Italian Restaurant
795,room 608,42.655258,18.072346,,Hotel
796,Kroatian yö,42.660524,18.071956,,Park
797,Market Pemo,42.656365706701365,18.07513459409515,,Food & Drink Shop
798,"Bolnica Dubrovnik, Medarevo",42.64776093734414,18.076270662303646,Dr. Roka Mišetića,Hospital
799,Opca Bolnica Dubrovnik,42.647781924800874,18.07700450988251,,Hospital
800,"Café bar ""Dvije masline""",42.64777063349814,18.077079769888456,Dr. Roka Mišetića 2,Café
801,Taj Mahal,42.64829911022096,18.08844159353,Iva Vojnovica 14,Bosnian Restaurant
802,mbm-vrtni centar,42.650066,18.083956,Marka Marojice 4,Garden Center
803,What's Up,42.650064,18.083113,,Lounge
804,Villa Mar,42.654084507376,18.0724990367889,,
805,HSP dr. Ante Starčević,42.64908244301888,18.082834320093557,Iva Vojnovića 31,Office
806,zavod za mediteranske kulture,42.649542,18.084395,,College Administrative Building
807,"Upravni odjel za obrazovanje, šport, socijalnu skrb i civilno društvo",42.649025,18.083277,Iva Vojnovića 31a,Office
808,Alfaplan Građenje D.o.o.,42.650006,18.083594,Marka Marojice 3,Office
809,Avax Rent-A-Car,42.646884,18.082634,18 Josipa Kosora,Rental Car Location
810,Dječji vrtić Palčica,42.64926956805445,18.084311485290527,Iva Vojnovića 34,General College & University
811,"Veterinarska ambulanta ""CAMPI""",42.647013291917304,18.082498538563097,,Veterinarian
812,Kauc,42.65059567907511,18.082608535920805,,College Cafeteria
813,Zubna Ordinacija dr. Korda,42.64869718508105,18.08486059569611,Iva Vojnovica 30,Dentist's Office
814,Doctor Dubravko Jurici,42.650658,18.082801,,Dentist's Office
815,Trend Micro Directions,42.650779,18.060673,,Auditorium
816,Fitness Studio DYNAMIC 2 (Adriatic),42.65349994146582,18.069118017532237,,Building
817,Gloriet bar Lanterna,42.650769,18.060058,Massarykova,
818,Dubrovnik Sensation,42.65005636727261,18.08313536591396,,Government Building
819,Plaza Cafe,42.649911,18.083086,Iva Vojnovica 37,Café
820,Torcidin klub,42.651451110839844,18.07686996459961,Fra Filipa Grabovca 1950,Gay Bar
821,Zubna Ordinacija Jurišić,42.650619,18.082206,Petra Hektorovića 3,Dentist's Office
822,Dubrovnik Dental,42.650543,18.082413,,Dentist's Office
823,Emergency Room,42.650066219359935,18.077270814601427,Ante Sercera,Emergency Room
824,Mare Conference Room,42.650747,18.0606,Dubrovnik Palace Hotel,Meeting Room
825,NOVA Rent a Car Dubrovnik,42.653345,18.074952,Zrtava s Dakse 5,Rental Car Location
826,Uni Rent,42.653362,18.069363,,Rental Car Location
827,Dubrava Conference Hall,42.650720137109104,18.06046512255631,Dubrovnik Palace Hotel,Meeting Room
828,Praonica auta,42.64853,18.077762,,Car Wash
829,Sirius d.o.o.,42.64723,18.08211,Josipa Kosora 28,Electronics Store
830,HP,42.653359903972664,18.077658693625164,,Post Office
831,Caffe bar Cohiba,42.65039,18.08298,Iva Vojnovića 41a,Lounge
832,Nujoom Bellydance Dubrovnik,42.651275,18.072039,,Strip Club
833,Caffe Bar Župaho,42.64827429933725,18.085381640141467,Iva Vojnovica 11,Café
834,Grand Hotel Park,42.651341797238686,18.06099770359163,,Hotel
835,Franusić Private Accomodation,42.65373843751784,18.071539524724255,Mandaljenska 2,Hotel
836,Frizerski salon Maja,42.649280482304164,18.08252748523238,Iva Vojnovica,Salon / Barbershop
837,"Hair & Cosmetic Studio ""Marijana""",42.652817,18.07914,Iva Vojnovica 61B,Salon / Barbershop
838,Frizerski Salon Katarina,42.648590087890625,18.084949493408203,,Salon / Barbershop
839,Apartment Helen,42.65275955200195,18.077213287353516,"Josipa Pupacica, 8",Boarding House
840,Videoteka Star Wars,42.653211,18.078097,,Video Store
841,Sv.Vlaho od Gorice,42.646212,18.08026,Gorica Sv. Vlaha,Historic Site
842,Restaurant Bokar,42.65269,18.078932,Od Svetog Mihajla,Restaurant
843,IBD 2012,42.65061106052279,18.06100845336914,Masarykov put 20,Event Space
844,Dvori Lapad,42.654204,18.071767,,Multiplex
845,Djecji vrtic Palcica,42.64913525895113,18.084009558324514,,Playground
846,Caffe Bar Petrunjela,42.64965057373047,18.083478927612305,,Pub
847,Bijelo Polje,42.64887619018555,18.08266830444336,,Field
848,U Šumi,42.64860304597029,18.080703850366955,,Field
849,Solidarnost,42.64745932379443,18.08228433329473,,Other Great Outdoors
850,Villa Rašica,42.653268,18.075525,Ivanska 14,Bed & Breakfast
851,Villa Music,42.64802360399692,18.081763294073006,Josipa Kosora 22,Bed & Breakfast
852,Klupica Na Gorici,42.64539972904434,18.08478533379327,,Volcano
853,Frizerski salon šejla,42.652263615528234,18.078006048388804,Ante šercera 1,Nail Salon
854,Nema preblamo,42.65354156494141,18.07557678222656,,Diner
855,Apartment Pavle,42.648328,18.08571,,Motel
856,Sunset Lounge,42.651493855885896,18.06080948522657,Masarykov put 20,Hotel Bar
857,Level,42.649906,18.083018,,Cocktail Bar
858,Guest House Eight Roses,42.6451,18.087622,Liechtensteinov Put 20,Hotel
859,Shisha & Hookah Bar Velvet,42.654278,18.071805,,Hookah Bar
860,time out caffe,42.648422,18.085252,,Sports Bar
861,Grod Dubrovnik,42.64955139160156,18.082910537719727,,Beer Garden
862,Retro cafe,42.650315,18.082947,,Café
863,City cafe,42.65017592431783,18.083251087806524,Iva Vojnovića 34d,Café
864,Nightclub Orlando,42.6516436481638,18.061941300520957,,Nightclub
865,Caffe bar Mirakul,42.650119,18.083159,Iva Vojnovica,Café
866,Bazinga,42.650264,18.083257,,Bar
867,Caffe bar Adriatik,42.6538,18.0688,Soline 19,Bar
868,K-Apartments,42.653023,18.07126,Ivanska 20,Inn
869,Lile Guesthouse,42.650932,18.081895,Petra Hektorovića 18b,Boarding House
870,Green Park Apartments,42.647975,18.083379,,Hotel
871,Villa Franovic,42.65296710313857,18.07805815163709,,Hostel
872,Park šuma Petka,42.651624498862354,18.061651853301733,,Dog Run
873,Cocoon Hostel,42.64785959494752,18.082685568334735,Josipa Kosora 40,Hostel
874,Dubrovnik palace Gym & Fitness,42.649921,18.060023,,Gym
875,Vis Hotel Dubrovnik,42.653047924133986,18.06819953771384,Masarykov put 4,Hotel
876,Uvala Hotel Dubrovnik,42.653077928751294,18.06859576732281,Masarykov put 6,Hotel
877,Kate's Place,42.644078,18.088012,,Vacation Rental
878,Dubrovnik Palace Lobby,42.65108325904584,18.0607372018828,,Hotel
879,Outdoor Pool,42.65097412930843,18.060242843344067,Hotel Dubrovnik Palace,Pool
880,Privredna banka Zagreb (PBZ),42.64858948531083,18.083332203724396,Josipa Kosora 4,Bank
881,Autobusno stajalište Square,42.652865,18.079052,,Bus Line
882,Hotel Komodor,42.65395949081888,18.070364334015974,,Hotel
883,Villa Mamma,42.652722,18.07588,,Residential Building (Apartment / Condo)
884,Blue Planet Diving Center,42.65144946,18.06101284,,Tour Provider
885,Dubrovnik Luxery Apartments,42.65414126961045,18.071696152844414,,Residential Building (Apartment / Condo)
886,Adriatic restaurant,42.65340791692088,18.06935703126607,,Restaurant
887,Splendid Beach,42.65409113356416,18.06863918534175,,Beach
888,Apartmani Vukosav,42.653836,18.073502,,Bed & Breakfast
889,[Comfort Zone] space palace,42.65234627027528,18.06276333211139,,Spa
890,Artemida,42.65209822876287,18.076900303750755,Antuna Barca 6,Motel
891,Dubrovnik Palace pool side,42.651001804839495,18.060378288779482,,Coffee Shop
892,"Sandwich bar ""Buono""",42.648582458496094,18.085559844970703,Iva Vojnovića 28,Sandwich Place
893,Peric,42.646944,18.082009,,Bed & Breakfast
894,The Garden,42.64955365122718,18.082165718078613,,Garden
895,Petka,42.65135353409607,18.061860255272062,Rašica bb,Park
896,Panto Pita,42.65291,18.079276,,Theme Restaurant
897,Apartments Marieta,42.653164,18.071554,"Mandaljenska, 6",Bed & Breakfast
898,Velika Petka,42.649452,18.071692,,Scenic Lookout
899,Mubera & Dino Repesa Appartments,42.653914,18.072201,,Bed & Breakfast
900,Plaža Adriatic,42.6532405295088,18.06935703126607,,Beach
901,Beach Vis,42.65348299034649,18.067701356899967,,Beach
902,Ispred kuce,42.65036339507478,18.082463802563538,,Scenic Lookout
903,Lean and Light,42.650899,18.060128,,Mediterranean Restaurant
904,Elafiti Restaurant,42.65071298362413,18.060507793687503,Dubrovnik Palace Hotel,Mediterranean Restaurant
905,Energy Clinic Dubrovnik Palace,42.651226559148874,18.060922622680664,Masarykov put 20,Spa
906,Stadion Gospino polje,42.646459228107425,18.086979515249975,,Soccer Field
907,Dubrovnik palace Gym & Fitness,42.650015,18.059968,,Gym / Fitness Center
908,Lopad,42.65302499480003,18.069351242179334,,Beach
909,Diving Center Blue Planet,42.65109697924318,18.060337766358703,Masarykov put 20,Sporting Goods Shop
910,Ankora Travel,42.64843309340028,18.08572769165039,Iva Vojnovića 32,Travel Lounge
911,Lounge Bar Culto,42.65000008164828,18.083151286622755,Iva vojnovica,Lounge
912,Hotel Adriatic,42.653204411514,18.069325588597934,Masarykov put 9,Hotel
913,Hostel Violet,42.64838260385291,18.084802701923067,Iva Vojnovica 25,Hostel
914,Apartment Fiorella,42.65131,18.07923,,Hotel
915,Americka igraonica Panda,42.652723,18.077568,,Playground
916,whats up,42.649959494720896,18.08301957902524,Ul. Iva Vojnovića 37,Nightclub
917,Caffe bar SV.VLAHO,42.64754486083984,18.07657623291016,Roka Mišetića bb,Café
918,Caffe Paradiso,42.650097244763245,18.083077472464176,Iva Vojnovića bb,Café
919,Fitness centar Musculus,42.65359380479265,18.07023525238037,Masarykov put,Gym
920,RIT Gym,42.653013,18.078776,,Gym
921,RUZA ROOMS,42.651358,18.079974,jajinska19,Boarding House
922,"savska, 10",42.65314865112305,18.070758819580078,,Housing Development
923,Azzur Fish Restaurant,42.644581155765685,18.091558978404755,Rixos,Seafood Restaurant
924,Danče Beach,42.64073441525944,18.101016697629596,,Beach
925,Rixos Hotel Beach Dubrovnik,42.64452865013266,18.09168805881849,Dubrovnik,Beach
926,Unofficial Night Nudist Beach,42.643809,18.091728,,Beach
927,Sixt Rent a Car - Dubrovnik/Hotel Rixos,42.64542416244349,18.090919804893474,Liechtensteinov Put 3,Rental Car Location
928,Sulic,42.641615642347524,18.10368559319151,Pile,Beach
929,Coffee Break Dubrovnik,42.643982227786815,18.10024380683899,Branitelja  Dubrovnika 41,Coffee Shop
930,Golden sun Ćasino,42.64583740527365,18.0906037118502,Liechensteinov put 3,
931,Avax Rent-A-Car,42.646884,18.082634,18 Josipa Kosora,Rental Car Location
932,Tirena,42.63936483905618,18.104110875422734,,Boat or Ferry
933,Sveucilisni Kampus - Kantina,42.64432354370311,18.100324410203687,,College Cafeteria
934,Kantina,42.64440729188331,18.10021440655255,Branitelja Dubrovnika 41,College Cafeteria
935,"Veterinarska ambulanta ""CAMPI""",42.647013291917304,18.082498538563097,,Veterinarian
936,University Of Dubrovnik Campus,42.64491483391511,18.09228266715044,,General College & University
937,kololocep,42.637781,18.103539,,Bay
938,Villa Bonaca,42.64223814829335,18.09005950070675,Korculanska 2,Bed & Breakfast
939,Apartment Harlekin,42.64161461633327,18.1014347076416,ANICA BOŠKOVIĆ 26,Bed & Breakfast
940,Sixt Dubrovnik Rixos Libertas,42.64701542258575,18.0902737113618,,Rental Car Location
941,Mozaik,42.64531350425884,18.091008695965296,Rixos Libertas,Breakfast Spot
942,Sveucilisni Kampus - Radionica Za Papir,42.64407650747992,18.100278092872138,,University
943,UNIDU radio,42.644470380340316,18.100104402940385,"Branitelja Dubrovnika 41, 20 000 Dubrovnik, Croatia",Radio Station
944,на гидрах,42.644236,18.087971,,Boat or Ferry
945,Sirius d.o.o.,42.64723,18.08211,Josipa Kosora 28,Electronics Store
946,Sv.Vlaho od Gorice,42.646212,18.08026,Gorica Sv. Vlaha,Historic Site
947,"Melis & Nevzat's wedding @ Fort Lovrijenac, Dubrovnik",42.640897,18.104074,,General Entertainment
948,Sveučilišni kampus - Stara bolnica,42.644277441664,18.100288147636686,Branitelja dubrovnika,University
949,Agora,42.645335779865135,18.09098002863826,,Bar
950,Solidarnost,42.64745932379443,18.08228433329473,,Other Great Outdoors
951,Klupica Na Gorici,42.64539972904434,18.08478533379327,,Volcano
952,Beach between Hotel President and Copacabana beach,42.63771097393709,18.107011547418374,,Beach
953,Villa Smodlaka,42.645205,18.091915,,Vacation Rental
954,Rixos Fitness & Gym Center,42.64532584547052,18.090968625380377,,Gym
955,Apartments BrunoR,42.645032,18.090485,Eugena Kvaternika 2,Vacation Rental
956,Rixos Golden Sun Casino,42.645420348419236,18.09082265975045,Liechtensteinov Put,Casino
957,Merit Casino Libertas,42.645437,18.091186,Liechtensteinov put 3,Casino
958,Rixos Libertas Dubrovnik Dinner and Breakfest Room,42.64528003572671,18.090933712690376,Rixos Libertas,American Restaurant
959,Stijena pored Rixosa,42.64519247087716,18.091292661372044,,Beach
960,lapad market,42.64476478075572,18.09192950683128,Kralja Tomislava,Farmers Market
961,Xenia design,42.645656,18.090759,Liechteinsteinov put 3,Women's Store
962,Guest House Eight Roses,42.6451,18.087622,Liechtensteinov Put 20,Hotel
963,Stanica za tehnicki pregled vozila,42.646537,18.087058,,Gas Station
964,Rixos Libertas Dubrovnik,42.64532794598224,18.090978980153526,Liechtensteinov put 3,Hotel
965,Mermaid's Lounge,42.641624,18.103664,Ulica od Tabakarije 33,Beach Bar
966,Pušo's Pub,42.640832,18.101087,,Bar
967,Klub Orlando,42.64341759849805,18.099380695937512,,Other Nightlife
968,Hostel Villa Garden,42.64422607421875,18.100801467895508,,Hostel
969,Rixos Spa,42.64467664357958,18.09143739886141,,Salon / Barbershop
970,Rixos Libertas Dubrovnik,42.64153,18.103941,Od Tabakarije,Resort
971,Kate's Place,42.644078,18.088012,,Vacation Rental
972,Rixos Hotel Kids Club,42.645369,18.090861,,General Entertainment
973,А из нашего окна адриатика видна,42.644378,18.089523,,Residential Building (Apartment / Condo)
974,Stadion Gospino polje,42.646459228107425,18.086979515249975,,Soccer Field
975,Peric,42.646944,18.082009,,Bed & Breakfast
976,Kupalište Danče,42.64084117706823,18.100919723510742,Don Frana Bulića,Beach
977,Lalezar,42.644927978515625,18.090999603271484,,Turkish Restaurant
978,Rixos SPA & Wellness,42.64472902744504,18.09180792714246,,Spa
979,Tvrđava Lovrijenac (Fort Lovrijenac) (Tvrđava Lovrijenac),42.64093217505484,18.104368293861626,Ulica od Tabakarije 29,Castle
980,Globetrotter Tours Schreiter,42.645067,18.09139,,General Travel
981,Vodka Train Tours by www.VodkaTrain.biz,42.64551,18.090727,,General Travel
982,na klupi,42.641678929985645,18.103630327585776,,Beach Bar
983,Oktoberfest Fashion by www.Bembeltown.com,42.645228926820266,18.090528448549954,,Clothing Store
984,Oktoberfest Fashion by www.Bembeltown.com,42.645068,18.091389,,Clothing Store
985,Trgovina Harpoti,42.644238,18.10059,Dubrovačkih Branitelja 24,Convenience Store
986,Gradska Luka (Old Port) (Gradska Luka),42.64055705410722,18.111717439169297,Veliki Mul,Harbor / Marina
987,Buža - Cold Drinks,42.63905058881485,18.108702823519707,Dubrovnik City Walls,Bar
988,Konoba Jezuite,42.63938387731527,18.1095295264986,,Mediterranean Restaurant
989,Caffe Bar Bard - Mala Buža,42.638917261372306,18.11030854998851,,Bar
990,RKT. CRKVA GOSPE VELIKE,42.640133,18.110671,,Historic Site
991,Croata Museum Concept Store,42.64003615864234,18.110302090644836,Pred dvorom 2,Accessories Store
992,Konoba Ribar,42.63999764086943,18.11149956432114,Kneza Damjana Jude,Mediterranean Restaurant
993,Kopun,42.63944232715309,18.10955817104352,Ignati Cathedrals,Mediterranean Restaurant
994,Pub Arch,42.639970868562955,18.110042228525455,Bunićeva Poljana 1,Pub
995,Caffe Bar Mirage,42.63993631518667,18.110026123299484,Bunićeva Poljana 3,Café
996,Jazz Caffe Troubadour,42.64001273226047,18.110235720436545,Buniceva poljana 2,Bar
997,Konoba Amoret,42.639875138778336,18.11074519759703,Od Pustijerne bb,Mediterranean Restaurant
998,Azur Restaurant,42.639132890447435,18.110579641311837,Pobijana 10,Mediterranean Restaurant
999,Smoking Area Dubrovnik Aiport,42.636825,18.112262,,Airport Gate
1000,Biskupijsko Sjemenište,42.639137,18.109318,Poljana Ruđera Boškovića 6,Religious School
1001,Crkva Sv Ignacija | St Ignatius Church,42.63956978979988,18.10937591349173,,Church
1002,kololocep,42.637781,18.103539,,Bay
1003,libertas guesthouse Dubrovnik,42.6396404057385,18.108499527383522,,Boarding House
1004,MSC Magnifica,42.63825245326065,18.108901977539062,,Boat or Ferry
1005,Mala Buza Plaža,42.6390421339309,18.11046228226607,Dubrovnik,Beach
1006,Cocktail Bar,42.639816,18.110067,Gunduliceva poljana,Cocktail Bar
1007,Malvazija,42.640050785659206,18.109929616000652,Dropčeva 4,Wine Bar
1008,Amoret Mali,42.639099,18.110529,,Café
1009,The Coffee Square,42.639873,18.109908,,Café
1010,Troubadur,42.64005066276073,18.11027121708779,,Bar
1011,Bar Micro,42.639793,18.110073,,Bar
1012,Zijadic,42.6384108795613,18.109425899827226,Stajeva 1,Boarding House
1013,Rooms Kazerma,42.640097,18.107088,Od Kaštela 38,Hotel
1014,Strosmayerova 4A,42.639825,18.108875,Strosmayerova 4A,Hotel
1015,Villa en Ville,42.63956,18.108635,Hranjca ul. 1,Vacation Rental
1016,Apartments Bobo,42.640237,18.107812,Ulica Svetog Josipa 21,Hotel
1017,Apartment Castro,42.639487,18.110672,,Hotel
1018,La Musica Apartments,42.63994216918945,18.10865592956543,,Boarding House
1019,Fresh* Sheets Hostel,42.63943970825169,18.108045348569753,mokvina (Sv. Simuna) 15,Hostel
1020,Konoba Karmen,42.63961114457013,18.11049702140199,Poljana M. Drzica,Restaurant
1021,Marojice Kaboge #7,42.640187,18.109273,Marojice Kaboge #7,Residential Building (Apartment / Condo)
1022,U Berte,42.638458,18.110044,Bunićeva Poljana,Event Space
1023,Mesnica,42.640235,18.11004,,Restaurant
1024,Garden Cottage,42.639555,18.109657,,Residential Building (Apartment / Condo)
1025,The Best in Heritage 2012. 09. 27-29.,42.639018,18.111946,,General Entertainment
1026,Sveta Margarita,42.638868,18.109507,,Historic Site
1027,Magarita Tower,42.638848,18.109527,,Historic Site
1028,Dubrovnik Theater,42.639018,18.111946,,Historic Site
1029,Nonenina Bar,42.640179542832946,18.110477160856288,Pred Dvorom 4,Cocktail Bar
1030,Kiwi Slasticarna,42.640243,18.110149,,Ice Cream Shop
1031,Локрум остров,42.639869743068914,18.110699666438773,,Rest Area
1032,Beach between Hotel President and Copacabana beach,42.63771097393709,18.107011547418374,,Beach
1033,Karaka ile Dalmacya Gecesi,42.640469765219365,18.1119704246521,,Boat or Ferry
1034,Post office Pošta Lapad,42.63999810183404,18.109599594967367,,Post Office
1035,Prirodoslovni Muzej (Natural-History Museum),42.63991122542124,18.109686442573786,Uz. Iezuite,History Museum
1036,Dubrovnik Treasures,42.638674,18.110134,,Jewelry Store
1037,The Dubrovnik Cathedral,42.64007789742291,18.110593830859298,Ulica kneza Damjana Jude 1,Church
1038,Adriatic Sea,42.63573,18.108046,,Waterfront
1039,Poljana Ruđera Boškovića,42.63945394741316,18.10960538480704,Poljana Ruđera Boškovića,Plaza
1040,Konzum,42.640397277853914,18.109848558170587,,Grocery Store
1041,Sea Rocks Bar,42.63896405696869,18.110291361808777,,Bar
1042,Petar cafe and bar,42.639288789991845,18.10756893769405,,Bar
1043,Kaše,42.639983769905314,18.110019170648982,Bunićeva poljana,Bar
1044,poco loco,42.639888,18.110021,,Café
1045,Amoret Restaurant,42.639825,18.110771,,Modern European Restaurant
1046,Micro Net&coffe Bar,42.639958,18.110052,,Beer Garden
1047,Salvatore,42.63932126176543,18.1117753278102,Dubrovnik walls,Bar
1048,Dubrovnik Ancient Walls Pub,42.63937613143517,18.11165499481692,,Beer Garden
1049,trubadur,42.6400269301451,18.110439122844276,,Karaoke Bar
1050,Pub Dubrovnik,42.639721,18.11002,,Pub
1051,Cafe Troubadour,42.639847,18.10995,Bunićeva poljana 2,Café
1052,studio Cikato,42.63992,18.109583,Ulica uz Jezuite 4 20000 Dubrovnik Croacia,Hotel
1053,Souvenir Shop,42.640198,18.110573,,Souvenir Shop
1054,ZigZag Dubrovnik,42.640135098158034,18.111782372155417,Stajeva 5,Hotel
1055,Lina House Airbnb,42.639707,18.111471,Bandureva 4,Vacation Rental
1056,Tržište - Market Sq / Plaza Del Mercado,42.640143,18.1098,,Market
1057,apartments vi-la,42.639994,18.107305,,Hotel
1058,Dubrovnik Gardens,42.63964,18.109955,1 Bunićeva poljana,Hotel
1059,Villa Sigrata,42.6395,18.110253,,Boarding House
1060,Apartments Placa Dubrovnik,42.64012908935547,18.109743118286133,Gundulic Poljana No:5 Old town Dobruca,Hotel
1061,Kulturno-povijesni Muzej (Cultural-history Museum) (Kulturno-povijesni Muzej),42.64031030016001,18.11056634192937,Knežev Dvor,History Museum
1062,Apartments Sonatina,42.63953402698596,18.108470578289086,,Hotel
1063,Guesthouse Rustico,42.640195,18.107048,,Hostel
1064,Hostel Villa Angelina (Annex),42.639824,18.109871,,Hostel
1065,"Galerija Dulčić, Masle, Pulitika",42.640196954959535,18.110566499685458,Držićeva Poljana 1,Art Gallery
1066,Rooms Old Town,42.640073,18.107945,,Hostel
1067,Apartments Santa Maria,42.63975143432617,18.108823776245117,"Ivana Rubljanina,1",Boarding House
1068,Stjepan Tower,42.638975,18.110761,,Historic Site
1069,Ispod Mira,42.639088,18.110437,,Restaurant
1070,Jesuit Stairs,42.639676881411475,18.10948093160387,,Historic Site
1071,Petar Tower,42.639285,18.107528,,Historic Site
1072,Arka Sea Food And Vegetarian Restaurant,42.63996516650605,18.109622350390147,,Restaurant
1073,la piazza apartment,42.640044,18.109514,,Residential Building (Apartment / Condo)
1074,buza house,42.639325,18.111121,,Residential Building (Apartment / Condo)
1075,Apartment Stajeva,42.639611,18.111936,,Residential Building (Apartment / Condo)
1076,Villa Ruza Old City Bistro,42.63968,18.110644,,Restaurant
1077,Bar a Fruits,42.639302,18.111724,,Juice Bar
1078,Poljana Marina Držića,42.639900014790655,18.110719174146652,Poljana Marina Držića,Plaza
1079,Fresh* Sheets B&B,42.64021668125853,18.11011489112004,,Bed & Breakfast
1080,Apartman Eden,42.63991165161133,18.110862731933594,,Bed & Breakfast
1081,Katedrala Uznesenja Marijna,42.640085019522104,18.109634334007026,Kneza Domjana Jude 1,Church
1082,"Burano, Italy",42.638946999487935,18.110103607177734,,Island
1083,Restaurant Koloseum,42.63984631381574,18.109505827737262,,Mediterranean Restaurant
1084,Buffet Kamenice,42.64022195295254,18.109861768342714,Gundulićeva poljana 8,Seafood Restaurant
1085,Amoret Apartments,42.63988341021942,18.109564855931584,,Bed & Breakfast
1086,Paparazzo,42.639758,18.110573,Pobijana 2,Steakhouse
1087,Štand iza katedrale,42.63964071658214,18.110514390971403,,Other Great Outdoors
1088,Apartments Dubrovnik,42.64150718564639,18.107549998490697,Zvijezdićeva 11,Bed & Breakfast
1089,Konoba Veritas,42.64026984901398,18.10997913797335,Gunduliceva poljana 2,Food
1090,Arka,42.639980166683976,18.109626372985602,Uz Jezuite,Seafood Restaurant
1091,Gianni,42.639934,18.111159,,Ice Cream Shop
1092,Game of Thrones Filming Location,42.6402735105179,18.109871717548454,,Historic Site
1093,Café Royal,42.640381,18.109878,Gundulićeva poljana 8,Seafood Restaurant
1094,Hotel Pucić Palace,42.64034695091349,18.109906767118552,Od Puca 1,Hotel
1095,Pizzeria Castro,42.640125070995886,18.109790759566543,Gundulićeva poljana 5,Italian Restaurant
1096,Caffe Bar Micro,42.63985590107685,18.110107667007817,,Café
1097,Storia,42.64000901155041,18.111392078195454,,Pizza Place
1098,Caffe bar Poco Loco,42.63993388211066,18.110051961288505,Buniceva poljane 5,Bar
1099,Bota,42.639782,18.110921,Od Pustijerne bb,Sushi Restaurant
1100,Gulliver,42.64025180556152,18.109889087082983,Obala Stjepana Radića 25,General Travel
1101,Amico Tours Travel Agency,42.64036478665098,18.109877507393193,Čubranovićeva BB,General Travel
1102,Restaurant Dubrovnik,42.64026777453837,18.109411571985536,"Marojice Kaboge 5, Dubrovnik",Restaurant
1103,Amoret Mal,42.6395328618392,18.11066492728024,Pobijana 10,Bar
1104,Ar Bastion,42.63920974731445,18.107481002807617,,Art Gallery
1105,Storia Apartment,42.640255,18.108978,Ulica Miha Pracata,Assisted Living
1106,Bunićeva poljana,42.639877,18.109968,,Pedestrian Plaza
1107,Spanjolske stube,42.639856,18.109406,,Plaza
1108,Konoba Dubrava,42.642915294685636,18.129019793391578,,Steakhouse
1109,Srđ Mountain,42.64924529165226,18.111598087472444,Srđ,Mountain
1110,Excelsior Hotel Spa Poll,42.640901,18.119467,,Hotel Pool
1111,Umjetnička galerija Dubrovnik/The Museum of Modern Art Dubrovnik,42.64170763190644,18.117719273613638,Frana Supila 33,Art Gallery
1112,Sea View Apartments,42.64207310787032,18.119795165676123,Various locations in Dubrovnik,Hotel
1113,Konoba Taj Mahal Front Table,42.640545229527596,18.117792325754404,,
1114,Đivovići,42.63930788589834,18.126211087339684,,
1115,Lavandula 1,42.6408931705803,18.119442477786205,,Meeting Room
1116,Bluestar Apartment,42.640017,18.127337,"Zlatni potok 28, 20000 Dubrovnik",Residential Building (Apartment / Condo)
1117,Dubrovnik Festiwine,42.64084064209295,18.119367207503632,,Winery
1118,Apartment Mirjana,42.644815,18.126322,Bosanka 62,Residential Building (Apartment / Condo)
1119,Zeljeznicka stanica Sumet,42.64570263558502,18.143534660339355,Rid 17,Light Rail Station
1120,Burrasca,42.639871661251995,18.1222332810704,,Boat or Ferry
1121,Dubrovnic Daily Parking,42.64139,18.121435,Ulica kralja Petra Krešimira IV 57A,Parking
1122,ßaçoñ Snåkës Dubrovnik,42.64138412475586,18.11703872680664,,Cocktail Bar
1123,Apartman Nava,42.642779,18.116178,,Vacation Rental
1124,Excelsior Hotel Business Centre,42.64103,18.11905,,Hotel
1125,Apartments Sv.Jakov,42.640371813844986,18.123148114129094,"Frana Supila, 47",Boarding House
1126,Zigy Secret Garden Apartment,42.642303,18.11644,,Vacation Rental
1127,Apartment villa Ivela,42.641286,18.119932,,Resort
1128,Sunny Room,42.642932,18.118089,,Hostel
1129,Guesthouse Enny,42.64335250854492,18.115142822265625,,Hostel
1130,Fun Studio Apartment,42.64163589477539,18.11887550354004,,Boarding House
1131,Unique Apartments,42.6440779183176,18.116518530153925,,Residential Building (Apartment / Condo)
1132,O2 Apartment Dubrovnik,42.640272,18.123995,,Residential Building (Apartment / Condo)
1133,Apartmani Solea,42.64400100708008,18.11360740661621,,Residential Building (Apartment / Condo)
1134,Apartments Previšić,42.64436214368491,18.114943662785002,Ulica Matije Gupca 22,Residential Building (Apartment / Condo)
1135,Sveti Jakov Apartments,42.634803,18.131834,,Residential Building (Apartment / Condo)
1136,Villa Maja,42.637774,18.128585,,Residential Building (Apartment / Condo)
1137,Apartment Ina,42.64171867295349,18.118353955466524,,Assisted Living
1138,Pension Stankovich,42.64389575432551,18.11459626664209,Matije Gupca 15,Bed & Breakfast
1139,Je*s,42.638223,18.126798,,Shoe Store
1140,Energy Clinic Hotel Excelsior,42.64103059165477,18.11963081359863,Frana Supila 12,Spa
1141,Kirgin Apartments,42.637794493667364,18.128619798116276,,General Travel
1142,Dubrovnik Cable Car - Top (Bosanka) Station,42.64923608308871,18.111640219354854,E65,Cable Car
1143,Banje,42.64161729609121,18.116420654563427,Ulica Frana Supila,Beach
1144,Bikers caffe,42.64248589474673,18.1181621617136,Petra Kresimira IV 39,Café
1145,Abakus Piano Bar,42.64100774390791,18.119317894779147,Excelsior Hotel,Cocktail Bar
1146,Victoria Bar,42.64042627127904,18.120490473605656,,Cocktail Bar
1147,Prosciutto & Wine Bar,42.638205972848944,18.12714909269732,,Wine Bar
1148,villa club bar,42.638083,18.127075,,Cocktail Bar
1149,Buggy Center,42.64336,18.114232,Top of cable Car,Go Kart Track
1150,Sveti Jakov cafe-restaurant-beach bar,42.635049,18.13093364238739,Sv. Jakov,Bar
1151,Hotel Excelsior Fitness,42.641262,18.118856,,Gym
1152,Apartments Adriatic Star,42.64228820800781,18.11539077758789,,Hostel
1153,Villa Orsula Dubrovnik,42.640453,18.120604,,Hotel
1154,Library Lounge,42.638098,18.12696,,Hotel
1155,죽전 김마담네 In Dubrovnik,42.64042,18.123652,,Hotel
1156,Villa Glavic Hotel Dubrovnik,42.64069277612791,18.121382141326265,FRANA SUPILA 14 DUBROVNIK,Hotel
1157,Sea View Rooms,42.643396,18.114551,Matije Gubca 6,Hotel
1158,Souvenir Shop,42.649175,18.111678,,Souvenir Shop
1159,Villa Antiq - BBQ & Pool,42.655587,18.139729,Tor 22,Hotel
1160,Apartment Karmen,42.641742,18.120569,,Hostel
1161,Grand Villa Argentina pool,42.64011264598572,18.121092638540492,,Pool
1162,Apartments Near Old Town,42.64407,18.11552,Brgatska 16,Vacation Rental
1163,Ploče Apartments,42.642072,18.119662,,Vacation Rental
1164,Villa Ragusa,42.641563,18.119962,,Hotel
1165,Apartments Nadramija,42.64349,18.11689,Put od Bosanke 27,Vacation Rental
1166,Apartments Rebecca,42.643785,18.11465,,Vacation Rental
1167,Angelic Apartments,42.642622,18.118753,,Vacation Rental
1168,Villa Odak,42.63901,18.126529,Ulica Frana Supila 16 20000 Croatia Villa Odak,Hostel
1169,Villa Allure Of Dubrovnik,42.641335,18.11955,,Hotel
1170,Dubrovnik in Homeland War,42.64930737966026,18.111599990986544,,Art Gallery
1171,Apartments Isabora,42.643966,18.113688,,Vacation Rental
1172,Apartments Dijana,42.643917,18.114886,Ulica Ante Topića Mimare 14,Vacation Rental
1173,Ploče,42.643535518717584,18.117288596872534,,Housing Development
1174,SeaView apartment 34,42.640276,18.126887,,Residential Building (Apartment / Condo)
1175,87 Stairs Apartments,42.643074,18.116714,,Residential Building (Apartment / Condo)
1176,Apartements Banje Beach,42.642573,18.117101,,Residential Building (Apartment / Condo)
1177,Apartment Luca,42.643966,18.115503,,Residential Building (Apartment / Condo)
1178,Caravelle,42.640304,18.120957,,Restaurant
1179,Apartmant Lavandula,42.640181,18.123213,49 Frana Supila,Residential Building (Apartment / Condo)
1180,Apartments Ante,42.644111,18.115348,Brgatska 13,Residential Building (Apartment / Condo)
1181,Villa King,42.639714,18.12685,"Frana Supila 61, 20000 Dubrovnik",Residential Building (Apartment / Condo)
1182,Apartment Amarin,42.643838,18.113726,Ante Tropica Mimare,Residential Building (Apartment / Condo)
1183,Apartment Victoria,42.64025,18.124813,Frana Supila 55,Residential Building (Apartment / Condo)
1184,Apartments Lora,42.644019,18.114828,,Residential Building (Apartment / Condo)
1185,Villa Ari,42.64339,18.11327,,Residential Building (Apartment / Condo)
1186,Rooms Raic,42.642779,18.118536,"Ulica Bruna Bušića, Dubrovnik, Croatia",Roof Deck
1187,Sveti Jakov view point,42.635146162621126,18.132910360091497,Dubrovnik,Scenic Lookout
1188,Sensus - Fine Dining Restaurant,42.641162957212025,18.11844080551224,Frana Supila 12,Mediterranean Restaurant
1189,Victoria Restaurant,42.64054894573274,18.12039943021604,Frana Supila 14,Mediterranean Restaurant
1190,Villa Gloria,42.642775,18.11425,Ulica iva Racica 3,Bed & Breakfast
1191,Medena Dolina,42.642242,18.133167,,Farm
1192,East West Beach Club Dubrovnik,42.64170779650187,18.11601851578733,,Beach
1193,Sveti Jakov Beach,42.63499931578341,18.13089298328447,,Beach
1194,Dubrovnik Watersports,42.64158,18.116466,,Athletics & Sports
1195,Swimming Pool,42.638136,18.126811,,Hotel Pool
1196,Brgat,42.63925657559558,18.13115012242783,,Rest Area
1197,Vidikovac Belvedere,42.6349200963619,18.135967638474675,Jadranska magistrala,Other Great Outdoors
1198,GVA Beach,42.63995192503113,18.121165898569505,,Beach
1199,Villa SPA,42.637981,18.127424,,Spa
1200,Nodilo Apartments,42.642096,18.118549,,Bed & Breakfast
1201,Cave Beach,42.639752,18.123074,,Beach
1202,Prora beach restaurant,42.641054636878124,18.11873030583919,Frana Supila 12,Mediterranean Restaurant
1203,Srđ,42.655929398852706,18.122119903564453,,Mountain
1204,Restaurant Pjerin,42.638092,18.126747,,Mediterranean Restaurant
1205,Gornja postaja žičare - Srdj,42.64908361554872,18.11165499481692,,Other Great Outdoors
1206,Salin Restoran - Breakfast,42.64083811692867,18.119407737653532,,Food
1207,Energy Clinic Grand Villa Argentina,42.640517592482226,18.12118649482727,Frana Supila 14,Spa
1208,Villa Dubrovnik Beach,42.637981,18.126908,,Beach
1209,Franciscan Monastery/Samostan - Rozat,42.6410223027973,18.132146045154457,,Church
1210,Excelsior Hotel Dubrovnik,42.641045390546715,18.119138319803675,Frana Supila 12,Hotel
1211,Panorama,42.648997272631966,18.11186737936316,Brsalje 1,Café
1212,Fort Imperial,42.649224699147766,18.11160542782729,,History Museum
1213,BanjeBeach Club,42.64166797866145,18.116122149526877,Frana Supila 10b,Nightclub
1214,Grand Villa Argentina,42.6403893512284,18.12104116136909,Frana Supila 14,Hotel
1215,Hotel Villa Dubrovnik,42.63812550544456,18.126901775557233,Vlaha Bukovca 6,Hotel
1216,Apartment Vedrana,42.639766,18.127339,28 Zlatni potok,Vacation Rental
1217,Villa Dubrovnik SLH,42.638161,18.126859,,Resort
1218,House KiKi,42.642625,18.116811,,Hostel
1219,Dubrovnik's Appart,42.644392,18.114418,,Residential Building (Apartment / Condo)
1220,Belveder,42.650382850959595,18.132412397117864,,Event Space
1221,Konoba Bosanka,42.6428615695959,18.129286766052246,"Dubrovnik, Bosanka",Mediterranean Restaurant
1222,ACI marina Dubrovnik,42.67065095520073,18.124259813602194,Na Skali 2,Harbor / Marina
1223,Panorama,42.648997272631966,18.11186737936316,Brsalje 1,Café
1224,Marina Dubrovnik,42.67060045038008,18.123061262774282,,Harbor / Marina
1225,Fort Imperial,42.649224699147766,18.11160542782729,,History Museum
1226,Pivnica Marina,42.669367763754245,18.12812628111268,,Restaurant
1227,Vimbula Restaurant,42.67034322655535,18.132337123713953,Near ACI Marina,
1228,Huck Finn,42.670469,18.13302,,Outdoor Event Space
1229,Apartments Husanovic,42.67506790161133,18.101726531982422,61,Building
1230,Srđ Mountain,42.64924529165226,18.111598087472444,Srđ,Mountain
1231,Konzum,42.66945695752343,18.127675998174936,Aci Marina,Grocery Store
1232,Restaurant Bazen,42.670835,18.125295,,Café
1233,Sunny Room,42.642932,18.118089,,Hostel
1234,Restaurant ACI Marina Dubrovnik,42.67072309004876,18.12542941835696,,Restaurant
1235,Dubrovnik's Appart,42.644392,18.114418,,Residential Building (Apartment / Condo)
1236,Dubrovnik Royal Palace,42.672192,18.122921,,Hotel
1237,Dubrovnik Cable Car - Top (Bosanka) Station,42.64923608308871,18.111640219354854,E65,Cable Car
1238,Franjevacki Samostan Pohodenja Marijina,42.671793,18.125171,,Church
1239,OMBLA,42.668862440610155,18.130455294493625,,River
1240,INA ACI Marina,42.67051658964312,18.12662218810702,Dubrovnik,Harbor / Marina
1241,Caffe Bar Panther,42.67516955388717,18.113721988062267,,Bar
1242,Buggy Center,42.64336,18.114232,Top of cable Car,Go Kart Track
1243,Bikers caffe,42.64248589474673,18.1181621617136,Petra Kresimira IV 39,Café
1244,Konoba TIME,42.6734908680144,18.0940111643615,Uz Jadransku cestu 3,Bar
1245,Pizzeria Laus,42.67389481565353,18.116860138463675,Ulica Od Izvora,Pizza Place
1246,Zrinkine odaje,42.64536174517803,18.109634334007026,,Other Nightlife
1247,Rosa Bianca,42.675415,18.097843,,Italian Restaurant
1248,Pizzeria Šumica,42.676267,18.109155,72 Od Izvora,Pizza Place
1249,Libertas Bus Line 1B,42.6763074840718,18.10682627414665,Od Izvora,Bus Line
1250,The Fig House,42.673683,18.12634,,Vacation Rental
1251,Villa Dard Dubrovnik,42.645605,18.10709,,Resort
1252,Apartments Rebecca,42.643785,18.11465,,Vacation Rental
1253,Guesthouse Rainbow,42.653274,18.096418,,Vacation Rental
1254,Villa Banana,42.65104596745354,18.098124344588346,,Hostel
1255,House KiKi,42.642625,18.116811,,Hostel
1256,Apartments Nadramija,42.64349,18.11689,Put od Bosanke 27,Vacation Rental
1257,Dubrovnik in Homeland War,42.64930737966026,18.111599990986544,,Art Gallery
1258,Villa Konalic Hotel,42.672529,18.131711,,Hotel
1259,Apartments Isabora,42.643966,18.113688,,Vacation Rental
1260,Marko Polo Hostel,42.647234,18.104417,,Hostel
1261,Souvenir Shop,42.649175,18.111678,,Souvenir Shop
1262,Pemo d.o.o.,42.66977,18.134572,,Convenience Store
1263,Hostel Dubrovnik Marine,42.672607,18.136265,,Hostel
1264,Rooms Dora,42.647405,18.104274,Šumetska ulica 4,Hostel
1265,Apartments Near Old Town,42.64407,18.11552,Brgatska 16,Vacation Rental
1266,Villa Klaic,42.647729823474855,18.103821388684974,,Hotel
1267,Sea View Rooms,42.643396,18.114551,Matije Gubca 6,Hotel
1268,Djecje igraliste Novi dom Mokosica,42.674924851976805,18.112187664033506,,Playground
1269,Apartments Dijana,42.643917,18.114886,Ulica Ante Topića Mimare 14,Vacation Rental
1270,INA BP Komolac,42.668228252316794,18.129817188733877,Ogarici Bb,Gas Station
1271,Angelic Apartments,42.642622,18.118753,,Vacation Rental
1272,Lovely Sleep,42.673213,18.11422,,Hotel
1273,Bus stop magistrala 3,42.65666,18.093733,,Bus Stop
1274,Villa Antiq - BBQ & Pool,42.655587,18.139729,Tor 22,Hotel
1275,INA Petrol Station For Ship,42.671386270693944,18.12566102377781,,Gas Station
1276,Sobe Mara,42.64729300078518,18.10440036243013,,Hostel
1277,Apartments & Rooms Stella,42.646621,18.105273,,Boarding House
1278,Appartments MAK,42.64341354370117,18.112844467163086,,Residential Building (Apartment / Condo)
1279,Apartment Luca,42.643966,18.115503,,Residential Building (Apartment / Condo)
1280,Apartmani Laurels,42.674805,18.098146,Ulica uz jadransku cestu 80,Residential Building (Apartment / Condo)
1281,Apartment Amarin,42.643838,18.113726,Ante Tropica Mimare,Residential Building (Apartment / Condo)
1282,Apartments Ante,42.644111,18.115348,Brgatska 13,Residential Building (Apartment / Condo)
1283,Trippentrekkers @Dubrovnik,42.646925,18.104478,,Residential Building (Apartment / Condo)
1284,Ploče,42.643535518717584,18.117288596872534,,Housing Development
1285,Apartman A Kind Of Magic Dubrovnik,42.651615,18.098332,,Residential Building (Apartment / Condo)
1286,VILA Pralas,42.672584161399975,18.12183376620784,Pralas,Residential Building (Apartment / Condo)
1287,Rooms Raic,42.642779,18.118536,"Ulica Bruna Bušića, Dubrovnik, Croatia",Roof Deck
1288,Villa Ari,42.64339,18.11327,,Residential Building (Apartment / Condo)
1289,Apartements Banje Beach,42.642573,18.117101,,Residential Building (Apartment / Condo)
1290,87 Stairs Apartments,42.643074,18.116714,,Residential Building (Apartment / Condo)
1291,Belveder,42.650382850959595,18.132412397117864,,Event Space
1292,Villa Kosovic,42.64486345757658,18.110618608408235,,Residential Building (Apartment / Condo)
1293,Apartments Lora,42.644019,18.114828,,Residential Building (Apartment / Condo)
1294,Dubrovnik Center Hostel,42.672938,18.136105,,Assisted Living
1295,Apartments Rock Palace,42.64683803433917,18.104550895780534,Stolacka 1,Assisted Living
1296,Caffe bar Vapor,42.674182,18.099904,,Coffee Shop
1297,Apartment Why Green,42.649244,18.101392,9 Brdasta,Bed & Breakfast
1298,Izvor Rijeke Omble,42.67583,18.136627,,River
1299,Pemo,42.675407,18.106134,,Grocery Store
1300,Konoba Dubrava,42.642915294685636,18.129019793391578,,Steakhouse
1301,Golubov kamen,42.680279,18.143578,,Other Great Outdoors
1302,Rooms Batina,42.650642,18.099088,Marka Gjaje 1,Bed & Breakfast
1303,Cafe Bar Bistro Nava,42.67058806257307,18.126697460137017,,Food
1304,Konoba Bosanka,42.6428615695959,18.129286766052246,"Dubrovnik, Bosanka",Mediterranean Restaurant
1305,Konoba Bonaca,42.670436022620876,18.09511954333622,,Food
1306,Walking trail srd,42.646845,18.10535,,Trail
1307,Gornja postaja žičare - Srdj,42.64908361554872,18.11165499481692,,Other Great Outdoors
1308,Bistro Izvor,42.67521119859044,18.136361381038878,,Bistro
1309,Studenac,42.670121,18.134669,,Grocery Store
1310,Srđ,42.655929398852706,18.122119903564453,,Mountain
1311,Konoba BoGo,42.67319508109158,18.11433881521225,Gorava 41,Mediterranean Restaurant
1312,Apartment Jelena,42.651917,18.0979,,Bed & Breakfast
1313,Uz Rijeku,42.674872597868735,18.095843240397933,,Trail
1314,Veterinarska ambulanta - Anima Vita,42.67540767654311,18.094557523727417,Uz jadransku cestu 1b,Veterinarian
1315,Klub mladih Drito - Mokošica,42.675425,18.106024,Bartola Kašića 8,Community Center
1316,Nauticki Centar Mokosica,42.673483,18.094021,Na Moru 24,Boat or Ferry
1317,SUNSAIL ADRIATIC d.o.o.,42.67082112447216,18.127235945187504,Komolac,Boat or Ferry
1318,Caffe bar Kiss,42.67626027322154,18.106622228060317,Od izvora 80,Bar
1319,Bistro Pizzeria Panika,42.676232,18.10879,Od Izvora bb,Pizza Place
1320,Veliki Kurac,42.674026,18.132372,,Speakeasy
1321,Vino Bar Tina,42.67337136156003,18.094094791186976,,Wine Bar
1322,Guesthouse Martin,42.65067,18.098757,Tivatska 1,Vacation Rental
1323,Niz rijeku,42.673506465374665,18.09404847478569,,Dog Run
1324,Villa Hedera IV,42.66516876220703,18.13824462890625,Ulica Čajkovica Nova,Hotel
1325,Djecji vrtic Pcelica Mokosica,42.675054,18.104007,,Playground
1326,Guesthouse Enny,42.64335250854492,18.115142822265625,,Hostel
1327,Panorama Guesthouse,42.65206081958255,18.098182240852076,Majkovska 1 Gruz,Boarding House
1328,Apartman Nava,42.642779,18.116178,,Vacation Rental
1329,Magdalena,42.66999578538253,18.127293846861022,,Salon / Barbershop
1330,villa kety,42.67236070989403,18.12170059470052,,Hotel
1331,m/y Elena,42.670862,18.123579,,Cruise
1332,Brdasta Ulica 12,42.648736,18.102035,Brdasta Ulica 12,Residential Building (Apartment / Condo)
1333,Apartment Mirjana,42.644815,18.126322,Bosanka 62,Residential Building (Apartment / Condo)
1334,Apartments Previšić,42.64436214368491,18.114943662785002,Ulica Matije Gupca 22,Residential Building (Apartment / Condo)
1335,Unique Apartments,42.6440779183176,18.116518530153925,,Residential Building (Apartment / Condo)
1336,Pension Stankovich,42.64389575432551,18.11459626664209,Matije Gupca 15,Bed & Breakfast
1337,Marina Store ACI,42.669523,18.12828,,Sporting Goods Shop
1338,The Moorings,42.67056955874229,18.126981177951333,,Harbor / Marina
1339,Euromarine Dubrovnik,42.670817,18.127037,,Harbor / Marina
1340,Na Moru,42.673439742534725,18.09381689288309,,Dessert Shop
1341,Nota & Bene,42.646263893057906,18.106143079911018,,Mediterranean Restaurant
1342,Dubrovnik,42.65848062176034,18.0884558202424,Hirvatistan Dubrovnik,Bar
